,galeria_id,galeria_nombre,galeria_fecha_fundacion,galeria_adscripcion,galeria_calle_numero,galeria_colonia,galeria_cp,galeria_telefono1,pagina_web,email,gmaps_latitud,gmaps_longitud,estado_id,municipio_id,localidad_id,nom_ent,nom_mun,nom_loc,link_sic,fecha_mod
0,349,Galería La Huerta,1994-11-12,Instituto Cultural de Aguascalientes (ICA)/Dirección de Educación Artística Básica,Alameda 206 esq. Héroe de Nacozari,Barrio La Purísima,20000,449 916 92 01,,c.culturallosarquitos@gmail.com,21.88288,-102.28218,1,1,1,Aguascalientes,Aguascalientes,Aguascalientes,http://sic.gob.mx/ficha.php?table=galeria&table_id=349,2022-03-22T07:27:11-06:00
1,1449,Galería La Señal en el Muro,2004-01-01,CIELA Fraguas ,Ignacio Allende 238  ,Centro,20000,449  915 88 19,,cielafraguas.ica@gmail.com,21.88134,-102.29923,1,1,1,Aguascalientes,Aguascalientes,Aguascalientes,http://sic.gob.mx/ficha.php?table=galeria&table_id=1449,2022-04-06T06:10:44-05:00
2,342,Galería de la Ciudad,1985-03-03,Casa de la Cultura Víctor Sandoval/Instituto Cultural de Aguascalientes,Venustiano Carranza 101,Centro,20000,449 915 16 91,,museosygalerias@yahoo.com.mx,21.88065,-102.29796,1,1,1,Aguascalientes,Aguascalientes,Aguascalientes,http://sic.gob.mx/ficha.php?table=galeria&table_id=342,2022-03-22T06:13:47-06:00
3,340,Galería de Artes Gráficas El Obraje,2000-09-13,Instituto Cultural de Aguascalientes,Juan de Montoro 222,Centro,20000,449 994 00 74,https://eservicios2.aguascalientes.gob.mx/eventosPortal/evento/718/Actividades%20M%C3%BAltiples,museosygalerias@yahoo.com.mx,21.88126,-102.29334,1,1,1,Aguascalientes,Aguascalientes,Aguascalientes,http://sic.gob.mx/ficha.php?table=galeria&table_id=340,2022-04-19T06:57:03-05:00
4,1795,Galería de la Universidad de las Artes,2002-01-01,Instituto Cultural de Aguascalientes (ICA)/Dirección de Promoción y Difusión,"Av. Manuel Gómez Morín s/n, edif. 50",Col. Ferronales,20180,"449 910 26 45 ext. 6702, 6703",,licenciaturaica@yahoo.com,21.88925,-102.28088,1,1,1,Aguascalientes,Aguascalientes,Aguascalientes,http://sic.gob.mx/ficha.php?table=galeria&table_id=1795,2022-03-22T06:25:04-06:00
5,1790,Galería Urbana,1000-01-01,Universidad Autónoma de Aguascalientes,Av. Universidad esq. Guadalupe González,Cd. Universitaria,20131,449  910 74 00,https://www.uaa.mx/portal/evento/galeria-urbana-la-fiesta-de-los-que-nunca-mueren/,,21.90955,-102.31137,1,1,1,Aguascalientes,Aguascalientes,Aguascalientes,http://sic.gob.mx/ficha.php?table=galeria&table_id=1790,2022-04-06T06:11:19-05:00
6,1483,Galería Artica,2013-04-22,Instituto Cultural de Aguascalientes (ICA)/Dirección de Promoción y Difusión/Centro de Artes Visuales,Venustiano Carranza 111,Centro,20000,449 915 16 91,,centrodeartesvisuales@yahoo.com.mx,21.88049,-102.29886,1,1,1,Aguascalientes,Aguascalientes,Aguascalientes,http://sic.gob.mx/ficha.php?table=galeria&table_id=1483,2022-04-19T05:16:02-05:00
7,745,Galería Benjamín Manzo ,2007-03-15,Casa de la Cultura Víctor Sandoval/Instituto Cultural de Aguascalientes ,Venustiano Carranza  101,Centro ,20000,449  910 20 10 ,,,21.88065,-102.29798,1,1,1,Aguascalientes,Aguascalientes,Aguascalientes,http://sic.gob.mx/ficha.php?table=galeria&table_id=745,2022-04-19T06:35:57-05:00
8,337,Galería Pons,1995-11-12,Instituto Cultural de Aguascalientes (ICA)/Dirección de Educación Artística Básica,Alameda 206 esq. Héroe de Nacozari,Barrio La Purísima,20259,449 916 92 01,,c.culturallosarquitos@gmail.com,21.88282,-102.28212,1,1,1,Aguascalientes,Aguascalientes,Aguascalientes,http://sic.gob.mx/ficha.php?table=galeria&table_id=337,2022-03-22T07:38:54-06:00
9,1895,Galería Madama,2018-11-12,,Nieto 403,Centro,20000,449 392 23 09,https://madama.mx/,contacto@madama.mx,21.87919,-102.29994,1,1,1,Aguascalientes,Aguascalientes,Aguascalientes,http://sic.gob.mx/ficha.php?table=galeria&table_id=1895,2022-03-22T07:31:12-06:00
10,356,Galería Francisco Díaz de León,1992-12-01,Instituto Cultural de Aguascalientes (ICA)/Dirección de Promoción y Difusión,Rivero y Gutiérrez 110,Centro,20000,449) 916 98 09,,casajesusteran@gmail.com,21.88339,-102.29677,1,1,1,Aguascalientes,Aguascalientes,Aguascalientes,http://sic.gob.mx/ficha.php?table=galeria&table_id=356,2022-04-06T06:09:34-05:00
11,341,Galería del Centro de Artes Visuales,1980-12-01,Instituto Cultural de Aguascalientes (ICA)/Dirección de Promoción y Difusión,Venustiano Carranza 101,Centro,20000,449  916 14 56,,centrodeartesvisuales@yahoo.com.mx,21.88047,-102.29876,1,1,1,Aguascalientes,Aguascalientes,Aguascalientes,http://sic.gob.mx/ficha.php?table=galeria&table_id=341,2022-04-06T06:10:10-05:00
12,346,Galería Rampa,1983-01-01,,Cristóbal Colón 116,Centro,20000,449 915 54 27,,,21.88014,-102.29522,1,1,1,Aguascalientes,Aguascalientes,Aguascalientes,http://sic.gob.mx/ficha.php?table=galeria&table_id=346,2021-08-31T05:19:34-05:00
13,1282,Galería Afrodita 112,2016-11-05,Particular,Afrodita 112,Col. Las Hadas,20140,449 153 09 51,,galeriaafrodita112@gmail.com,21.90638,-102.29162,1,1,1,Aguascalientes,Aguascalientes,Aguascalientes,http://sic.gob.mx/ficha.php?table=galeria&table_id=1282,2022-04-19T04:41:02-05:00
14,657,Galería Ex -Escuela de Cristo,2004-09-07,Instituto Cultural de Aguascalientes (ICA)/Dirección de Promoción y Difusión,Andador Benito Juárez 107,Centro,20000,449 915 16 91,,museosygalerias@yahoo.com.mx,21.88179,-102.29537,1,1,1,Aguascalientes,Aguascalientes,Aguascalientes,http://sic.gob.mx/ficha.php?table=galeria&table_id=657,2022-03-22T06:42:58-06:00
15,1798,Galería Aprendharte,2016-03-01,,Libertad 123,Centro,20000,449 963 56 04,http://www.aprendharte.com.mx/?fbclid=IwAR3N5K2Qr94NS9wbkpAEyBp6kLosu5NujGxt3Qy-4l96Ukhh7VvhE1gbtHA,aprenda@yahoo.com.mx,21.88164,-102.30081,1,1,1,Aguascalientes,Aguascalientes,Aguascalientes,http://sic.gob.mx/ficha.php?table=galeria&table_id=1798,2022-04-19T05:02:17-05:00
16,338,Galería Universitaria,1973-06-19,Universidad Autónoma de Aguascalientes,"Av. Universidad 940, edif. 1-B, piso 1",Cd. Universitaria,20131,449 910 74 00 ext. 234,http://www.uaa.mx,jhgarcia@correo.uaa.mx,21.91365,-102.31376,1,1,1,Aguascalientes,Aguascalientes,Aguascalientes,http://sic.gob.mx/ficha.php?table=galeria&table_id=338,2021-08-05T08:28:39-05:00
17,339,Galería de Arte Fernando González Medina,2020-07-26,Universidad Tecnológica del Norte de Aguascalientes , Av. Universidad 1001,La Estación,20400,465 965 00 30,,,22.22246,-102.28052,1,7,1,Aguascalientes,Rincón de Romos,Rincón de Romos,http://sic.gob.mx/ficha.php?table=galeria&table_id=339,2021-05-27T04:29:05-05:00
18,1064,La Covacha/Foro Galería,2012-10-25,,"Ruiz y Tercera núm.  350, Pasaje Romero int. 5A",Centro,22800,646 156 53 14,,lacovachamusic@gmail.com,31.86644,-116.62778,2,1,1,Baja California,Ensenada,Ensenada,http://sic.gob.mx/ficha.php?table=galeria&table_id=1064,2021-05-04T08:48:11-05:00
19,1543,Galería La Oficina,2019-11-22,,Calle Guadalupe Victoria 242, Col.  Independencia,22710,646  210 92 11,,galerialaoficina@gmail.com,31.86331,-116.598,2,1,1,Baja California,Ensenada,Ensenada,http://sic.gob.mx/ficha.php?table=galeria&table_id=1543,2022-03-23T04:48:35-06:00
20,1844,Sala de Exposiciones  del Centro INAH-Ensenada,1992-01-01,Secretaría de Cultura/INAH,Av. Ryerson 99,Centro,22800,646 178 25 31,,cominabc@yahoo.com,31.86413,-116.63014,2,1,1,Baja California,Ensenada,Ensenada,http://sic.gob.mx/ficha.php?table=galeria&table_id=1844,2022-04-29T03:18:38-05:00
21,1065,Galería Ernesto Muñoz Acosta,2007-07-31,Centro Estatal de las Artes/Instituto de Cultura de Baja California,Av. Lázaro Cárdenas s/n,Bahía Ensenada,22280,646 173 43 07/08 ext. 101,https://www.cenart.gob.mx/2015/07/ensenada/,,31.85673,-116.61808,2,1,1,Baja California,Ensenada,Ensenada,http://sic.gob.mx/ficha.php?table=galeria&table_id=1065,2022-03-23T04:35:16-06:00
22,1024,Galería de  Pérez Meillón,1988-09-01,,Blvd. Costero Lázaro Cárdenas 1094,Centro ,22800,612157 54 70,http://www.mexonline.com/gpm.htm,,31.8597,-116.6218,2,1,1,Baja California,Ensenada,Ensenada,http://sic.gob.mx/ficha.php?table=galeria&table_id=1024,2022-04-06T06:14:17-05:00
23,1025,Galería Petanca,2010-12-02,Centro de Residencias e Investigación Artística ,Av. Gastelum 228,Centro,22800,,,hecherrod@yahoo.com,31.86587,-116.62606,2,1,1,Baja California,Ensenada,Ensenada,http://sic.gob.mx/ficha.php?table=galeria&table_id=1025,2022-03-23T04:20:59-06:00
24,704,Galería L86 ,2020-10-01,,Calle C s/n,Villa de Juárez,22755,646 151 18 91,,galerial86bc@gmail.com,31.968,-116.65555,2,1,2485,Baja California,Ensenada,San Antonio de las Minas,http://sic.gob.mx/ficha.php?table=galeria&table_id=704,2021-12-16T06:05:16-06:00
25,531,Galería Planta Libre,2021-01-14,,Zuazua 447 P.A.,Centro,21100, 686 553 68 40,,,32.65908,-115.49012,2,2,1,Baja California,Mexicali,Mexicali,http://sic.gob.mx/ficha.php?table=galeria&table_id=531,2022-03-23T06:45:00-06:00
26,230,Sala de Arte Rubén García Benavides,2011-12-01,Universidad Autónoma de Baja California/Facultad de Artes,Blvd. Benito Juárez 2500,Centro,21280,686 551 97 13 y 14,,,32.63297,-115.44309,2,2,1,Baja California,Mexicali,Mexicali,http://sic.gob.mx/ficha.php?table=galeria&table_id=230,2022-03-23T03:43:37-06:00
27,229,Galería José García Arroyo,2016-04-06,"Cooperativa de Artistas Plásticos, A.C.",Av. Madero 1504,Centro,21100,686 247 64 44,,,32.6648,-115.49107,2,2,1,Baja California,Mexicali,Mexicali,http://sic.gob.mx/ficha.php?table=galeria&table_id=229,2022-03-23T04:26:32-06:00
28,343,Galería de la Ciudad,1978-06-20,Secretaría de Cultura/Instituto de Cultura de Baja California,Av. Álvaro Obregón 1209,Col. Nueva,21100,686 553 50 44  ext. 144,,artesplasticasbc@gmail.com,32.66327,-115.47245,2,2,1,Baja California,Mexicali,Mexicali,http://sic.gob.mx/ficha.php?table=galeria&table_id=343,2022-03-23T04:59:16-06:00
29,352,Sala Rufino Tamayo,1974-03-15,Casa de la Cultura de Mexicali/Instituto Municipal de Arte y Cultura ,Av. Francisco I. Madero s/n,Centro,21100,686 552 96 30,,casadelaculturamexicali@hotmail.com,32.66487,-115.49075,2,2,1,Baja California,Mexicali,Mexicali,http://sic.gob.mx/ficha.php?table=galeria&table_id=352,2022-03-23T03:34:42-06:00
30,1452,Sala de Exposiciones del Centro Cultural Tecate,1998-10-04,Ayuntamiento de Tecate,Calle Tláloc 400,Col. Cuauhtémoc,21470,665 654 49 47,,,32.57034,-116.6195,2,3,1,Baja California,Tecate,Tecate,http://sic.gob.mx/ficha.php?table=galeria&table_id=1452,2022-03-23T03:37:03-06:00
31,344,Galería de la Ciudad,1989-01-01,Secretaría de Cultura/Instituto de Cultura de Baja California,Pte. Ortíz Rubio s/n esq. Callejón Libertad ,Centro,21400,665  654 14 83,http://www.icbc.gob.mx/Conocenos/NuestrosEspacios, tecateicbc@baja.gob.mx,32.57279,-116.62646,2,3,1,Baja California,Tecate,Tecate,http://sic.gob.mx/ficha.php?table=galeria&table_id=344,2022-03-23T04:52:05-06:00
32,347,Galería Espacio Norte 2,2003-07-01,Universidad Autónoma de Baja California/Centro de Extensión Universitaria,Av. Universidad 1,Fracc. San Fernando,21460,665 654 24 04,https://cultura.uabc.mx/galerias/,cultura@uabc.edu.mx,32.56868,-116.62704,2,3,1,Baja California,Tecate,Tecate,http://sic.gob.mx/ficha.php?table=galeria&table_id=347,2022-03-23T04:30:29-06:00
33,703,Carmen Saltiel Gallery,2021-06-13,, Calle 9 y Calle Ignacio Zaragoza 8960-Local 7,Centro,22000,664 207 8310,, info@carmensaltielgallery.com,32.52761,-117.02902,2,4,1,Baja California,Tijuana,Tijuana,http://sic.gob.mx/ficha.php?table=galeria&table_id=703,2022-03-23T03:13:45-06:00
34,742,Galería  Álvarez Malo,2007-03-01,Casa de la Cultura Playas/IMAC,"Av. del Agua 777, Secc. Jardines",Fracc. Playas de Tijuana,22200,664 630 97 14,http://www.imac.tijuana.gob.mx/galerias.aspx,casadelaculturaplayas@gmail.com,32.52273,-117.11357,2,4,1,Baja California,Tijuana,Tijuana,http://sic.gob.mx/ficha.php?table=galeria&table_id=742,2021-09-07T08:59:11-05:00
35,686,Object Mexico,2014-06-28,Plataforma Mexicana de Diseño S. de R.L. de C.V.,Amado Paniagua 3017,Col. Aviación,22014,664 685 15 95,http://objectmexico.com,info@objectmexico.com,32.51637,-117.01146,2,4,1,Baja California,Tijuana,Tijuana,http://sic.gob.mx/ficha.php?table=galeria&table_id=686,2021-09-03T09:26:20-05:00
36,1541,Galería de Arte Alfonso Bustamante L.,2018-11-29,Grand Hotel Tijuana,"Blvd. Agua Caliente 4558,  Plaza Agua ", Aviacion,22014,,,,32.51279,-117.00765,2,4,1,Baja California,Tijuana,Tijuana,http://sic.gob.mx/ficha.php?table=galeria&table_id=1541,2021-06-16T06:46:09-05:00
37,626,La Caja Galería,2005-06-10,"La Caja Galería, A.C.",Cjón. de las Moras 118-B,Col. 20 de Noviembre,22450,664 686 67 91,http://www.lacajagaleria.com,info@lacajagaleria.com,32.51307,-116.99657,2,4,1,Baja California,Tijuana,Tijuana,http://sic.gob.mx/ficha.php?table=galeria&table_id=626,2021-07-30T08:21:44-05:00
38,351,Galería Picasso,1974-01-01,,Blvd. Díaz Ordaz 1331-2,Col. La Mesa,22450,664 621 65 31,http://www.galeriapicasso.com/,galeriapicasso1@hotmail.com; info@galeriapicasso.com,32.50554,-116.97965,2,4,1,Baja California,Tijuana,Tijuana,http://sic.gob.mx/ficha.php?table=galeria&table_id=351,2022-03-23T04:15:41-06:00
39,666,Galería El Cubo,2008-09-27,Centro Cultural Tijuana,Av.  Paseo de los Héroes 9350,Zona Urbana Río Tijuana,22010,664 687 96 52,https://www.cecut.gob.mx/ecubo.php,opina@cecut.gob.mx,32.52948,-117.02328,2,4,1,Baja California,Tijuana,Tijuana,http://sic.gob.mx/ficha.php?table=galeria&table_id=666,2022-03-23T04:36:25-06:00
40,717,Galería de Distrito-10 ,2008-06-26,,Av. Hipódromo 15 E,Col. Hipódromo,22020,664 686 16 37,,distrito10ea@gmail.com,32.50602,-116.99937,2,4,1,Baja California,Tijuana,Tijuana,http://sic.gob.mx/ficha.php?table=galeria&table_id=717,2022-03-23T05:01:56-06:00
41,707,Sala de Arte Álvaro Blancarte,2007-12-13,UABC/Escuela de Artes,Calz. Universidad 14418,Parque Industrial Internacional,22390,664 979 75 00 ext. 55607,https://cultura.uabc.mx/galerias/,saabgalerias@hotmail.com,32.53188,-116.96302,2,4,1,Baja California,Tijuana,Tijuana,http://sic.gob.mx/ficha.php?table=galeria&table_id=707,2022-03-23T03:46:49-06:00
42,1450,Galería Espacio 5,2015-07-01,Antiguo Palacio Municipal de Tijuana/Instituto Municipal de Arte y Cultura,Calle 2a. y Constitución s/n,Centro,22000,664 688 17 21 ext. 118,http://www.imac.tijuana.gob.mx/,difusionimac@gmail.com; arteyculturapopular.imac@gmail.com,32.53541,-117.03897,2,4,1,Baja California,Tijuana,Tijuana,http://sic.gob.mx/ficha.php?table=galeria&table_id=1450,2020-04-17T12:20:43-05:00
43,354,Galería Principal ,2000-01-01,Instituto de Cultura de Baja California ,Av. Centenario 10151,Zona Urbana Río Tijuana,22320,664 684 86 09,,tijuanaicbc@bajacalifornia.gob.mx,32.53155,-117.01699,2,4,1,Baja California,Tijuana,Tijuana,http://sic.gob.mx/ficha.php?table=galeria&table_id=354,2021-08-06T06:37:23-05:00
44,350,Galería Benjamín Serrano,1988-07-22,Instituto Municipal de Arte y Cultura de Tijuana (IMAC)/Casa de la Cultura de Tijuana,Av. París 5 ,Col. Altamira,22120,664 687 26 04,,casaculturatijuana@yahoo.com,32.53175,-117.05203,2,4,1,Baja California,Tijuana,Tijuana,http://sic.gob.mx/ficha.php?table=galeria&table_id=350,2021-10-05T12:51:54-05:00
45,740,Galería de Arte de la Ciudad,2006-11-17,Palacio de la Cultura / IMAC,"Benito Juárez s/n, esq. Constitución",Centro,22000,664  688 17 21,https://imac.tijuana.gob.mx/museo.aspx,palaciocultura@imactijuana.org; palacio_cultura_tijuana@hotmail.com,32.53491,-117.0389,2,4,1,Baja California,Tijuana,Tijuana,http://sic.gob.mx/ficha.php?table=galeria&table_id=740,2022-04-06T06:12:50-05:00
46,1700,Galería de la Casa del Túnel,2018-02-17,"Culturalmente Responsable, A.C.",Calle Chapo Márquez 133,Col.Empleados Federales,22010,664 682 95 70,,culturebeatmexico@gmail.com,32.54179,-117.03315,2,4,1,Baja California,Tijuana,Tijuana,http://sic.gob.mx/ficha.php?table=galeria&table_id=1700,2021-05-27T05:50:38-05:00
47,44,Sala Central de Exposiciones,1982-10-20,Secretaría de Cultura/CECUT,Paseo de los Héroes 9350 ,Zona Urbana Río Tijuana,22010,664 687 9652,http://www.cecut.gob.mx,agarcia@cecut.gob.mx,32.5301,-117.02302,2,4,1,Baja California,Tijuana,Tijuana,http://sic.gob.mx/ficha.php?table=galeria&table_id=44,2021-04-21T13:05:14-05:00
48,1270,Sala  Marta Palau,2020-03-11,Centro Cultural Tijuana,Paseo de los Héroes 9350,Zona Urbana Río Tijuana,22010, 664 687 9600,,,32.53015,-117.02332,2,4,1,Baja California,Tijuana,Tijuana,http://sic.gob.mx/ficha.php?table=galeria&table_id=1270,2022-03-23T03:58:36-06:00
49,1273,Galería ReEvolución 208,2013-01-01,,"Revolución s/n, Pasaje Rodríguez",Centro,22000,(664) 680 26 40,,,32.53378,-117.03713,2,4,1,Baja California,Tijuana,Tijuana,http://sic.gob.mx/ficha.php?table=galeria&table_id=1273,2020-04-20T07:07:39-05:00
50,1186,Galería de Arte del CEART de Tijuana,2013-04-01,Instituto de Cultura de Baja California,Vía Rápida Oriente 15320,Zona Río 3a. Etapa,22226,664 104 02 73,,icbc.cearttijuana@gmail.com,32.49972,-116.94578,2,4,1,Baja California,Tijuana,Tijuana,http://sic.gob.mx/ficha.php?table=galeria&table_id=1186,2022-04-07T04:04:35-05:00
51,1669,Galería  Internacional,2015-04-16,CEART/instituto de Baja California,Paseo La Cascada s/n,Fracc. La Cascada,22710,686  553 69 51,,ceartrosarito@gmail.com,32.30491,-117.04084,2,5,1,Baja California,Playas de Rosarito,Playas de Rosarito,http://sic.gob.mx/ficha.php?table=galeria&table_id=1669,2022-04-06T06:15:55-05:00
52,1797,Puerto Nuevo Gallery,1000-01-01,,Paseo del Mar 30,Centro,22703,661 614 0419 ,, puertonuevogallery,32.24226,-116.93563,2,5,1,Baja California,Playas de Rosarito,Playas de Rosarito,http://sic.gob.mx/ficha.php?table=galeria&table_id=1797,2022-03-23T06:35:55-06:00
53,1549,Índigo Galería de Arte Escuela,2017-11-01,,Calle 5 de Mayo núm. 310,Centro,23305,612 128 72 80,,indigogaleriadearte@gmail.com,24.1614,-110.31425,3,3,1,Baja California Sur,La Paz,La Paz,http://sic.gob.mx/ficha.php?table=galeria&table_id=1549,2022-03-31T05:07:18-06:00
54,1548,Salón de la Plástica Sudcaliforniana,2010-09-13,Centro Cultural La Paz,Calle 16 de Septiembre núm.  120,Centro,23000,612 122 00 65,,centroculturaldifusion@hotmail.com,24.16191,-110.31538,3,3,1,Baja California Sur,La Paz,La Paz,http://sic.gob.mx/ficha.php?table=galeria&table_id=1548,2022-03-31T05:20:22-06:00
55,436,Díaz Castro  Galería,1970-10-01,,Calle 5 de Mayo 306 bis,Centro,23000,612 117 00 12,,diazcastroartista@gmail.com,24.16247,-110.31335,3,3,1,Baja California Sur,La Paz,La Paz,http://sic.gob.mx/ficha.php?table=galeria&table_id=436,2022-03-31T04:43:51-06:00
56,437,Galería de Arte Carlos Olachea Boucsiéguez,1987-01-27,Instituto Sudcaliforniano de Cultura,Navarro s/n ,Centro,23000,612 122 91 96,,galeriaolachea@gmail.com,24.14666,-110.31706,3,3,1,Baja California Sur,La Paz,La Paz,http://sic.gob.mx/ficha.php?table=galeria&table_id=437,2022-03-31T04:50:41-06:00
57,434,Galería  La Pintada ,1990-01-16,Casa de Cultura del Estado de Baja California Sur,Francisco I. Madero  825,Col. Esterito,23020,612 122 90 40,https://www.culturabcs.gob.mx/recinto/79,casaculturaedobcs@yahoo.com.mx ,24.16719,-110.30981,3,3,1,Baja California Sur,La Paz,La Paz,http://sic.gob.mx/ficha.php?table=galeria&table_id=434,2022-03-31T04:47:38-06:00
58,1546,Galería Casa Parra,2003-01-01,,Independencia 413,Centro,23000,612 124 25 28,,info@casaparra.com.mx,24.16159,-110.31411,3,3,1,Baja California Sur,La Paz,La Paz,http://sic.gob.mx/ficha.php?table=galeria&table_id=1546,2022-03-31T04:48:10-06:00
59,1509,Galería de Todos Santos,1994-01-01,,Calle Topete s/n,Centro,23300,612 145 05 00,http://www.galeriatodossantos.com/,mplcope@yahoo.com,23.45611,-110.22015,3,3,3,Baja California Sur,La Paz,Todos Santos,http://sic.gob.mx/ficha.php?table=galeria&table_id=1509,2022-03-31T05:00:40-06:00
60,533,Galería Logan,1998-01-15,,Benito Juárez y Morelos,Centro,23300,612 145 01 51,http://www.jilllogan.com,jilllogan2001@yahoo.com,23.44864,-110.22602,3,3,3,Baja California Sur,La Paz,Todos Santos,http://sic.gob.mx/ficha.php?table=galeria&table_id=533,2022-03-31T05:01:18-06:00
61,1904,NN Galería,2020-01-01,,Ignacio Zaragoza esq. Vicente Guerrero, Centro Histórico,23400,,https://www.nngaleria.com/,contactonngaleria@gmail.com,23.06159,-109.69735,3,8,1,Baja California Sur,Los Cabos,San José del Cabo,http://sic.gob.mx/ficha.php?table=galeria&table_id=1904,2021-08-18T05:15:13-05:00
62,1355,Jardín del Arte Los Cabos,2009-01-01,,"Blvd. Antonio Mijares s/n, Plaza Mijares",Centro,23410,,https://jardindelarteloscabos.org/,,23.06193,-109.69487,3,8,1,Baja California Sur,Los Cabos,San José del Cabo,http://sic.gob.mx/ficha.php?table=galeria&table_id=1355,2022-03-31T05:13:59-06:00
63,1909,AV Tequila Experience & Art Gallery,2000-01-01,,Carret.  Transpeninsular Km. 24.5 Local 11-12,,23400,624 243 24 72,,,23.00189,-109.73385,3,8,1,Baja California Sur,Los Cabos,San José del Cabo,http://sic.gob.mx/ficha.php?table=galeria&table_id=1909,2022-03-31T05:32:58-06:00
64,1067,Casa Dahlia Gallery,1999-01-01,,Morelos y Obregón,Centro,23400,624 142 21 20,https://casadahlia.com/contact/,art@casadahlia.com ,23.06247,-109.6965,3,8,1,Baja California Sur,Los Cabos,San José del Cabo,http://sic.gob.mx/ficha.php?table=galeria&table_id=1067,2022-03-31T04:43:06-06:00
65,435,Galería Alfredo Ginocchio,2019-01-01,,"Carr. Transpeninsular km. 24.5, Koral Center",Cerro Colorado,23400,624 122 36 40,https://ginocchio.gallery/,info@ginocchiogaleria.com,23.03769,-109.70948,3,8,1,Baja California Sur,Los Cabos,San José del Cabo,http://sic.gob.mx/ficha.php?table=galeria&table_id=435,2022-03-31T04:18:45-06:00
66,1910,Galería Sergio Bustamante Los Cabos,1000-01-01,,Lázaro Cardenas y Paseo Cabo Bello s/n,El Medano,23410,624 191 67 40,,puertoparaiso@sergiobustamante.com.mx,22.88716,-109.90925,3,8,1,Baja California Sur,Los Cabos,San José del Cabo,http://sic.gob.mx/ficha.php?table=galeria&table_id=1910,2022-03-31T05:45:22-06:00
67,1817,Muvezi Galeria de Esculturas,2016-03-01,,Alvaro Obregon 20 ,Centro,23400,624 177 96 54,,,23.06246,-109.69685,3,8,1,Baja California Sur,Los Cabos,San José del Cabo,http://sic.gob.mx/ficha.php?table=galeria&table_id=1817,2022-03-31T04:15:37-06:00
68,838,Yandi Monardo Art Gallery,2011-08-01,,Luxury Avenue Local 3,Centro,23000,624 117 56 12,,yandimonardo@yahoo.com.mx,22.88616,-109.90863,3,8,1,Baja California Sur,Los Cabos,San José del Cabo,http://sic.gob.mx/ficha.php?table=galeria&table_id=838,2022-03-31T05:21:32-06:00
69,1660,Paquimé Gallery,2008-10-01,,Ignacio Comonfort  s/n esq. Idelfonso,Pueblo La Playa,23400,624 157 48 73,,mora@paquimegallery.com,23.06148,-109.67169,3,8,1,Baja California Sur,Los Cabos,San José del Cabo,http://sic.gob.mx/ficha.php?table=galeria&table_id=1660,2022-03-31T05:17:12-06:00
70,1345,Laura Urrea Art Gallery,2013-01-01,,Calle Fco. I. Madero s/n entre Hidalgo y Guerrero ,Centro,23450,624 150 65 73,,,22.8826,-109.91343,3,8,1,Baja California Sur,Los Cabos,San José del Cabo,http://sic.gob.mx/ficha.php?table=galeria&table_id=1345,2022-03-31T05:16:17-06:00
71,1552,Old Town Gallery,2015-03-01,,Alvaro Obregón núm. 1505,Centro,23400,624  688 98 56,http://theoldtowngallery.com/,info@theoldtowngallery.com,23.06233,-109.69708,3,8,1,Baja California Sur,Los Cabos,San José del Cabo,http://sic.gob.mx/ficha.php?table=galeria&table_id=1552,2022-03-31T05:12:14-06:00
72,1544,Ivan Guadarrama Art Gallery,2010-01-01,,Alvaro Obregón 20,Centro,23400,624 189 11 44,http://www.ivanguaderrama.com/,info@ivanguaderrama.com ,23.06233,-109.69703,3,8,1,Baja California Sur,Los Cabos,San José del Cabo,http://sic.gob.mx/ficha.php?table=galeria&table_id=1544,2022-03-31T05:10:53-06:00
73,1353,Galería Tanya Talamantes,2009-01-01,,Carret.Transpeninsular Km 31.5,Corredor Turístico,23400,,http://www.tanyatalamante.com/,info@tanyatalamante.com,23.04514,-109.69741,3,8,1,Baja California Sur,Los Cabos,San José del Cabo,http://sic.gob.mx/ficha.php?table=galeria&table_id=1353,2022-03-31T05:03:54-06:00
74,1232,Galería Patricia Mendoza,2000-01-01,,Álvaro Obregón e Hidalgo,Centro,23400,624 158 64 97,http://www.patriciamendozagallery.com/,info@patriciamendozagallery.com,23.06289,-109.69558,3,8,1,Baja California Sur,Los Cabos,San José del Cabo,http://sic.gob.mx/ficha.php?table=galeria&table_id=1232,2022-03-31T05:02:14-06:00
75,842,Benavente Gallery,2000-01-01,,Camino de los Charros 6,Centro,23450, 624 246 1119,,  benaventefifi@gmail.com,22.88265,-109.91592,3,8,1,Baja California Sur,Los Cabos,San José del Cabo,http://sic.gob.mx/ficha.php?table=galeria&table_id=842,2021-06-17T04:34:05-05:00
76,460,Galería de Ida Victoria,2000-12-01,,Vicente Guerrero 1128,Centro,23400,624 142 57 72,http://idavictoriagallery.com/,ida@idavictoriaarts.com,23.06224,-109.69716,3,8,1,Baja California Sur,Los Cabos,San José del Cabo,http://sic.gob.mx/ficha.php?table=galeria&table_id=460,2022-03-31T04:59:29-06:00
77,1823,Galería  de Arte  Enrique Bascón,2016-01-01,,Alvaro Obregón 8,Centro,23400,624 157 52 78,http://www.artebascon.com/,enrique@artebascon.com,22.89036,-109.91721,3,8,1,Baja California Sur,Los Cabos,San José del Cabo,http://sic.gob.mx/ficha.php?table=galeria&table_id=1823,2022-03-31T04:45:08-06:00
78,1068,Frank Arnold Gallery,2012-01-01,,Comonfort 1137,Centro,23400,624 142 44 22,https://frankarnoldart.com/,frank@frankarnoldart.com,23.06352,-109.69565,3,8,1,Baja California Sur,Los Cabos,San José del Cabo,http://sic.gob.mx/ficha.php?table=galeria&table_id=1068,2021-05-06T08:49:48-05:00
79,698,Galería  Pez Gordo,1999-01-01,,"Corredor Turístico,Carra. Transpeninsular km. 7.5",,23400,624 144 52 92,http://www.pezgordoloscabos.com/,pezgordoart@yahoo.com,23.01087,-109.72457,3,8,1,Baja California Sur,Los Cabos,San José del Cabo,http://sic.gob.mx/ficha.php?table=galeria&table_id=698,2021-04-16T06:09:49-05:00
80,1354,Galería de Arte de la Casa Ballena,2011-01-01,,Camino a Cabo del Este S/N,Col. La Playa,23403,,https://casaballena.com/acerca-de-casa-ballena/,info@casaballena.com,23.07076,-109.67362,3,8,1,Baja California Sur,Los Cabos,San José del Cabo,http://sic.gob.mx/ficha.php?table=galeria&table_id=1354,2021-05-27T06:40:07-05:00
81,1344,Intagrafia. Taller de Grafica y Galeria,2012-08-01,,Morelos esq. Comonfort,Centro,23400,624 105 28 50,,,23.06341,-109.69655,3,8,1,Baja California Sur,Los Cabos,San José del Cabo,http://sic.gob.mx/ficha.php?table=galeria&table_id=1344,2022-03-31T05:09:53-06:00
82,1816,La Sacristía Art & History,1000-01-01,,Miguel Hidalgo 9,Centro,23400,624 142 40 07,,lasacristia.loscabos@gmail.com,23.06223,-109.69551,3,8,1,Baja California Sur,Los Cabos,San José del Cabo,http://sic.gob.mx/ficha.php?table=galeria&table_id=1816,2022-03-31T05:14:35-06:00
83,834,Galería Corsica Cabo,2000-01-01,,Alvaro Obregón 15,Centro Histórico,23400,624 146 91 77,,sanjosedelcabogallerydistrict@gmail.com,23.0625,-109.69577,3,8,1,Baja California Sur,Los Cabos,San José del Cabo,http://sic.gob.mx/ficha.php?table=galeria&table_id=834,2021-04-21T07:16:03-05:00
84,1547,Galería  de Arte del Hotel Grand Velas,2019-05-13,Hotel Grand Velas, Carret. Transpeninsular Km. 17,Corredor Turístico,23405,624 104 98 00,,,23.0322,-109.71329,3,8,1,Baja California Sur,Los Cabos,San José del Cabo,http://sic.gob.mx/ficha.php?table=galeria&table_id=1547,2022-03-31T04:45:44-06:00
85,826,Galería de Arte del Cerrito del Timbre,2019-01-01,Casa de la Cultura Profra. Nieves Tresviño,Matamoros s/n esq. Niños Héroes   ,Centro,23450,612 143 07 49,,coorculturacsl@gmail.com,23.06159,-109.69475,3,8,1,Baja California Sur,Los Cabos,San José del Cabo,http://sic.gob.mx/ficha.php?table=galeria&table_id=826,2022-03-31T04:56:26-06:00
86,1346,Héctor Estrada Art Gallery,2014-10-31,,Blvd. Lázaro Cárdenas s/n,Centro,23450,624 105 13 81,,hestradaart@hotmail.com,22.88364,-109.9142,3,8,54,Baja California Sur,Los Cabos,Cabo San Lucas,http://sic.gob.mx/ficha.php?table=galeria&table_id=1346,2022-03-31T05:04:36-06:00
87,1814,Galería de la Casa de Cultura de Santiago,2008-03-13,Instituto de la Cultura y las Artes del Municipio de Los Cabos,Guadalupe Victoria s/n  esq. Misioneros de 1930 ,Col. Santiago,23500,624 130 20 91,,,23.47661,-109.71838,3,8,280,Baja California Sur,Los Cabos,Santiago,http://sic.gob.mx/ficha.php?table=galeria&table_id=1814,2022-03-31T04:59:53-06:00
88,1069,Sala de Exposiciones Kumutu del Palacio Municipal,2015-03-13,Ayuntamiento de Loreto,Francisco I. Madero s/n,Centro,23880,613 135 00 36,,,26.01068,-111.34244,3,9,1,Baja California Sur,Loreto,Loreto,http://sic.gob.mx/ficha.php?table=galeria&table_id=1069,2022-03-31T05:19:37-06:00
89,1089,Arqte Galería,2019-10-01,,Calle 12 núm. 26, Centro,29000,981 129 11 39,https://arqtegaleria.wixsite.com/galeriadearte/,arqtegaleria@hotmail.com,19.8403,-90.54459,4,2,1,Campeche,Campeche,San Francisco de Campeche,http://sic.gob.mx/ficha.php?table=galeria&table_id=1089,2020-03-18T04:45:07-06:00
90,1347,Casa San Pablo Mercado de Arte,2013-01-01,Secretaría de Cultura de Campeche,Calle 59 núm. 44,Centro,24000,981  811 39 27,,casasanpablomercadodelarte@gmail.com,19.84253,-90.5368,4,2,1,Campeche,Campeche,San Francisco de Campeche,http://sic.gob.mx/ficha.php?table=galeria&table_id=1347,2022-04-06T06:41:03-05:00
91,1167,Galería Manuel de la Cruz,2003-06-05,Biblioteca Campeche/Secretaría de Cultura de Campeche,Calle 8 s/n entre 55 y 57,Centro Histórico,24000,981 811 65 98,, bibliotecacampeche@hotmail.com,19.8463,-90.53707,4,2,1,Campeche,Campeche,San Francisco de Campeche,http://sic.gob.mx/ficha.php?table=galeria&table_id=1167,2022-03-31T07:33:56-06:00
92,73,Galería  Domingo Pérez-Piña,1860-10-01,Instituto Campechano,"Calle 10 núm. 357,  PB, Edif.Central",Centro,24000,981  816 60 56,,humbertoo@hotmail.com,19.84367,-90.53988,4,2,1,Campeche,Campeche,San Francisco de Campeche,http://sic.gob.mx/ficha.php?table=galeria&table_id=73,2022-04-06T06:39:20-05:00
93,374,Galería Arte Joaquín Clausell,1981-01-16, Teatro Francisco de Paula Toro,Calle 12 núm. 139,Centro Histórico,24000,981 811 36 53,,,19.84538,-90.53456,4,2,1,Campeche,Campeche,San Francisco de Campeche,http://sic.gob.mx/ficha.php?table=galeria&table_id=374,2022-03-31T07:33:36-06:00
94,1097,Arte en Movimiento Galería,2005-01-01,,Blvd. José Musa De León 1755,Col. Los Pinos,25198,844 122 38 21,,galeria@artenmovimiento.com,25.46232,-100.96324,5,30,1,Coahuila de Zaragoza,Saltillo,Saltillo,http://sic.gob.mx/ficha.php?table=galeria&table_id=1097,2022-04-04T05:32:01-05:00
95,1099,Galería de Arte Contemporáneo Casa del Cerro,2019-12-14,Instituto Municipal de Cultura,Calz. Industria s/n,Col. Durangueña,27000,871 7165072 ,,difusion.culturatrc@gmail.com,25.42166,-100.99972,5,30,1,Coahuila de Zaragoza,Saltillo,Saltillo,http://sic.gob.mx/ficha.php?table=galeria&table_id=1099,2022-04-04T06:31:31-05:00
96,1019,Galería de Arte Contemporáneo Rosalinda Cervantes,2019-07-31,,Hidalgo 274,Centro,25000,844 100 97 64,,,25.42255,-101.00005,5,30,1,Coahuila de Zaragoza,Saltillo,Saltillo,http://sic.gob.mx/ficha.php?table=galeria&table_id=1019,2021-05-25T06:27:42-05:00
97,1021,Galería de la Academia Interamericana de Derechos Humanos,2015-01-14,Universidad Autónoma de Coahuila,Juárez esq. con Hidalgo,Centro,27000,844 411 14 29,,aidh@uadec.edu.mx,25.42138,-101.00044,5,30,1,Coahuila de Zaragoza,Saltillo,Saltillo,http://sic.gob.mx/ficha.php?table=galeria&table_id=1021,2022-04-04T05:59:01-05:00
98,1749,Galería Albricci,2015-11-01,,ignacio Allende Sur 101,Centro,25000,844 414 15 41,,contacto@galeriaalbricci.com,25.42137,-101.00147,5,30,1,Coahuila de Zaragoza,Saltillo,Saltillo,http://sic.gob.mx/ficha.php?table=galeria&table_id=1749,2022-04-04T05:50:33-05:00
99,1421,Charly's ART Cuadros al Oleo,2017-08-01,,Av. Presidente Carranza 1222 ,,27014,871 887 1585,https://charlys-art.ueniweb.com/,charlysartcuadrosaloleo@hotmail.com,25.5364,-103.46176,5,35,1,Coahuila de Zaragoza,Torreón,Torreón,http://sic.gob.mx/ficha.php?table=galeria&table_id=1421,2020-11-19T08:42:11-06:00
100,1622,Galería HQ Antiguedades y Coleccionables,1995-03-01,,Av. Matamoros 60 Ote.,Centro,27000,871 712 48 52,http://hqantiguedades.com/,info@hgantiguedades.com,25.54009,-103.44797,5,35,1,Coahuila de Zaragoza,Torreón,Torreón,http://sic.gob.mx/ficha.php?table=galeria&table_id=1622,2022-04-04T05:54:25-05:00
101,1312,Galería Juárez 2525,2013-10-02,,Av. Juárez 2525 Ote.,Centro,27000,871 793 88 96,,galeriajuarez25@gmail.com,25.53796,-103.43407,5,35,1,Coahuila de Zaragoza,Torreón,Torreón,http://sic.gob.mx/ficha.php?table=galeria&table_id=1312,2022-04-04T05:52:41-05:00
102,711,Galería Torranoa,2021-03-18,,Blvd. Revolución 2050—10,Plaza Jardín,27200,871 103 94 11,https://www.torranoa.com/, galeriatorranoa@gmail.com,25.53531,-103.42634,5,35,1,Coahuila de Zaragoza,Torreón,Torreón,http://sic.gob.mx/ficha.php?table=galeria&table_id=711,2022-04-06T05:32:36-05:00
103,1098,Galería de Arte Contemporáneo,1982-01-01,Teatro Isauro Martínez,Galeana 73 Sur,Centro Histórico,27000,871 192 08 39,,teatroisauromartinez@yahoo.com.mx,25.5404,-103.45228,5,35,1,Coahuila de Zaragoza,Torreón,Torreón,http://sic.gob.mx/ficha.php?table=galeria&table_id=1098,2022-04-04T05:51:17-05:00
104,1418,Galería Mónica Saucedo ,2014-10-29,,Emilio Rabasa 327,Col. Real Vista Hermosa III,28017,312 323 45 01,http://www.galeriamonicasaucedo.com,contacto@galeriamonicasaucedo.com,19.25992,-103.70537,6,2,1,Colima,Colima,Colima,http://sic.gob.mx/ficha.php?table=galeria&table_id=1418,2022-04-12T04:41:41-05:00
105,1284,La Artería Galería de Arte,2013-07-27,,Andador Constitución 39,Centro,28060,(312) 312 27 06,,,19.24432,-103.72735,6,2,1,Colima,Colima,Colima,http://sic.gob.mx/ficha.php?table=galeria&table_id=1284,2019-08-29T06:35:56-05:00
106,748,Galería Casa del  Catrín,1000-01-01,,Manuel Alvarez Bravo 40,Centro,34070,312 312 90 67,,casadelcatrincolima@gmail.com,19.24551,-103.7276,6,2,1,Colima,Colima,Colima,http://sic.gob.mx/ficha.php?table=galeria&table_id=748,2022-04-12T04:47:28-05:00
107,254,Galería Alfonso Michel ,1981-09-01,Secretaría  de Cultura del Gobierno del Estado de Colima/Casa de Cultura,Calz. Galván Norte s/n,Centro,28000,312 312 84 31,http://culturacolima.gob.mx/galeria-alfonso-michel-inaugurara-exposicion-en-homenaje-a-carlos-monsivais/,info@culturacolima.gob.mx,19.24255,-103.71499,6,2,1,Colima,Colima,Colima,http://sic.gob.mx/ficha.php?table=galeria&table_id=254,2021-09-20T08:29:44-05:00
108,1841,Sala José Luis Cuevas,2017-05-22,Centro Estatal de las Artes,Km. 5.5 Carr. Villa Alvarez-Comala,,28450,(312) 313 99 68,https://www.cenart.gob.mx/2015/07/centro-estatal-artes-colima/,info@culturacolima.gob.mx,19.31622,-103.75972,6,3,1,Colima,Comala,Comala,http://sic.gob.mx/ficha.php?table=galeria&table_id=1841,2020-11-03T03:23:38-06:00
109,1023,Galería Ricardo Rocha,2017-05-22,Centro Estatal de las Artes,Km. 5.5. Carr. Villa Alvarez-Comala,,28450,312 313 99 68,http://www.cenart.gob.mx/2015/07/centro-estatal-artes-colima/,info@culturacolima.gob.mx,19.31624,-103.75968,6,3,1,Colima,Comala,Comala,http://sic.gob.mx/ficha.php?table=galeria&table_id=1023,2022-04-12T04:34:35-05:00
110,1087,Galería de Arte Municipal,2012-01-01,Gobierno del Estado de Chiapas/CONECULTA,Calle 2a. Ote. y Sur Ote. 7,Centro,30400,961  649 09 24,, galeriadeartedecintalpa@gmail.com,16.69826,-93.71984,7,17,1,Chiapas,Cintalapa,Cintalapa de Figueroa,http://sic.gob.mx/ficha.php?table=galeria&table_id=1087,2022-04-06T07:11:45-05:00
111,1420,Nanishaw Galería de Arte,2013-12-06,,Blvd. de las Federaciones Km. 1260 ,,30090,963  105 76 72,,nan.ishaw.galeriadearte@gmail.com,16.22681,-92.12585,7,19,1,Chiapas,Comitán de Domínguez,Comitán de Domínguez,http://sic.gob.mx/ficha.php?table=galeria&table_id=1420,2022-04-06T06:55:10-05:00
112,1623,Galería Tres50,2017-12-15,Espacio Cultural Tres50,Av. Coronel Salvador Urbina 342 ,Cenro,29160,,,tres50espaciocultural@gmail.com,16.70583,-93.01375,7,27,1,Chiapas,Chiapa de Corzo,Chiapa de Corzo,http://sic.gob.mx/ficha.php?table=galeria&table_id=1623,2020-10-23T06:41:55-05:00
113,1091,"Aramauca, Plataforma para el Arte Contemporáneo",2017-01-01,,Av. Flavio A. Paniagua 71,Barrio de Guadalupe,29230,916 124 53 07 ,,info.aramauca@gmail.com,16.73934,-92.62864,7,78,1,Chiapas,San Cristóbal de las Casas,San Cristóbal de las Casas,http://sic.gob.mx/ficha.php?table=galeria&table_id=1091,2022-04-06T07:06:03-05:00
114,1666,Galería MUY,2016-01-01,,Nicolás Ruiz 83,Barrio de Guadalupe,29230,967 631 51 57,http://www.galeriamuy.org,galeriamuy@gmail.com,16.73862,-92.6287,7,78,1,Chiapas,San Cristóbal de las Casas,San Cristóbal de las Casas,http://sic.gob.mx/ficha.php?table=galeria&table_id=1666,2022-04-06T07:01:02-05:00
115,1279,Casa Kuxtal Arte y Diseño,2013-02-01,,Real de Guadalupe 67,Centro,29220,967 192 06 00  ,https://www.casakuxtal.mx/,info@casakuxtal.mx,16.73771,-92.63258,7,78,1,Chiapas,San Cristóbal de las Casas,San Cristóbal de las Casas,http://sic.gob.mx/ficha.php?table=galeria&table_id=1279,2022-04-06T06:58:12-05:00
116,1455,Arteria Chiapas Galería Tienda,2000-02-01,,Calle Real de Guadalupe 118,Barrio de Guadalupe,29230,967 631 51 11,,arteriachiapas@gmail.com,16.73786,-92.62961,7,78,1,Chiapas,San Cristóbal de las Casas,San Cristóbal de las Casas,http://sic.gob.mx/ficha.php?table=galeria&table_id=1455,2022-04-06T06:56:56-05:00
117,1090,Canthil 4 Galería de Arte,2012-03-02,,Real de Guadalupe 148,Centro,29230,,,canthil4@gmail.com,16.73793,-92.62837,7,78,1,Chiapas,San Cristóbal de las Casas,San Cristóbal de las Casas,http://sic.gob.mx/ficha.php?table=galeria&table_id=1090,2021-09-03T09:21:50-05:00
118,1280, Uvence Arte + Hotel,2009-10-01,,Calle Presidente Carranza 14 , Col. Revolución Mexicana,29220,967  678 42 90,,ventas@uvenceartehotel.com,16.74545,-92.63072,7,78,1,Chiapas,San Cristóbal de las Casas,San Cristóbal de las Casas,http://sic.gob.mx/ficha.php?table=galeria&table_id=1280,2022-03-25T06:51:30-06:00
119,315,Galería  de Arte Contemporáneo ,2012-04-01,Centro Cultural de Chiapas Jaime Sabines,Av. 12 Ote. Norte  núm.  2,Centro,29000,961 612 51 39,http://www.conecultachiapas.gob.mx,jaimesabines@conecultachiapas.gob.mx,16.75224,-93.10582,7,101,1,Chiapas,Tuxtla Gutiérrez,Tuxtla Gutiérrez,http://sic.gob.mx/ficha.php?table=galeria&table_id=315,2022-04-06T07:25:43-05:00
120,1661,Galería de Arte Las Guacamayas,2013-01-01,Hotel Las Guacamayas,Av. 20 de Noviembre 1101,Col. Progreso,31850,636 699 09 97,http://www.mataortizollas.com/espanol/mainhotel.html,maytelujan@msn.com,30.37013,-107.95305,8,13,1,Chihuahua,Casas Grandes,Casas Grandes,http://sic.gob.mx/ficha.php?table=galeria&table_id=1661,2022-04-04T05:10:01-05:00
121,671,Galería Panorama Arte,2017-01-01,Gobierno Municipal,Av. Venustiano Carranza 1201,Centro,31000,614 415 48 03,https://www.panoramaarte.com/,info@panoramaarte.com,28.63777,-106.07132,8,19,1,Chihuahua,Chihuahua,Chihuahua,http://sic.gob.mx/ficha.php?table=galeria&table_id=671,2022-03-31T07:38:55-06:00
122,1799,Nodi Art Gallery,2020-11-17,, Catedral de Zacatecas  3333  ,Col. Cantera,31216,614 443 28 21,https://nodiartgallery.com/,,28.64477,-106.13644,8,19,1,Chihuahua,Chihuahua,Chihuahua,http://sic.gob.mx/ficha.php?table=galeria&table_id=1799,2022-04-04T07:30:58-05:00
123,1422,Galería de Casa Chihuahua ,1972-09-01,Casa Chihuahua Centro de Patrimonio Cultural,Libertad 901,Centro,31000,614 429 33 00 ext.11702,http://www.casachihuahua.org.mx/,,28.63958,-106.07393,8,19,1,Chihuahua,Chihuahua,Chihuahua,http://sic.gob.mx/ficha.php?table=galeria&table_id=1422,2022-04-04T05:25:03-05:00
124,546,Galería La Estación Arte Contemporáneo,2002-01-01,,Aldama 1002 ,Centro,31000,614 410 72 16,http://laestaciongallery.com/,info@laestaciongallery.com,28.65092,-106.06165,8,19,1,Chihuahua,Chihuahua,Chihuahua,http://sic.gob.mx/ficha.php?table=galeria&table_id=546,2021-09-08T07:14:55-05:00
125,98,Sala Bertha Falomir Ruiz,2018-11-17,Plaza Cultural Los Laureles,Av. Universidad s/n esq. Av. División del Norte,Col. Magisterial,31200,614 214 48 00,,,28.65168,-106.08566,8,19,1,Chihuahua,Chihuahua,Chihuahua,http://sic.gob.mx/ficha.php?table=galeria&table_id=98,2021-09-07T07:57:39-05:00
126,1668,Terminal Santorini Espacio ,2007-08-16,,Paseo Bolivar 313 esq. Calle 5a. ,Centro,31000,614 127 93 58,,terminalsantoriniespacio@gmail.com,28.62288,-106.05058,8,19,1,Chihuahua,Chihuahua,Chihuahua,http://sic.gob.mx/ficha.php?table=galeria&table_id=1668,2022-03-31T07:44:40-06:00
127,983,Nacho Guerrero Galería,2011-03-01,,Calle 34 núm. 2412,Col. Pacífico,31000,614 413 97 36,https://nachoguerrerogaleria.com.mx/,galeria@nachoguerrero.com.mx,28.62199,-106.07657,8,19,1,Chihuahua,Chihuahua,Chihuahua,http://sic.gob.mx/ficha.php?table=galeria&table_id=983,2022-03-31T07:39:46-06:00
128,1095,Galería Artefacto,2014-09-25,Facultad de Artes/Universidad Autónoma de Chihuahua,"Av. Universidad s/n, Campus 1",Col. San Felipe,31170,614 439 18 50 ext. 4400,http://fa.uach.mx/extension_y_difusion/2013/03/05/monotipia/,facultadartes.uach@gmail.com,28.65366,-106.08709,8,19,1,Chihuahua,Chihuahua,Chihuahua,http://sic.gob.mx/ficha.php?table=galeria&table_id=1095,2022-03-31T07:36:20-06:00
129,1701,Galería Juárez Contemporary,2011-12-01,,Calle 20 de Noviembre 4305,Centro de El Paso,32310,656 257 13 12,,juarezcontemporary@gmail.com,31.73278,-106.45017,8,37,1,Chihuahua,Juárez,Juárez,http://sic.gob.mx/ficha.php?table=galeria&table_id=1701,2021-12-16T06:12:05-06:00
130,1094,Galería de Arte Permanente,2019-01-01,Instituto Municipal de las Mujeres,Francisco Villa 135,Centro,32000,656 611 4078,,immujeresjrz@gmail.com,31.73843,-106.48342,8,37,1,Chihuahua,Juárez,Juárez,http://sic.gob.mx/ficha.php?table=galeria&table_id=1094,2022-04-04T05:15:03-05:00
131,1702,Galería de Arte Popular Chihuahua,2018-06-28,Fomento al Desarrollo Artesanal del Estado de Chihuahua/Centro Cultural de las Fronteras,Anillo Envolvente  José Reyes Estrada núm. 445 ,Zona Pronaf,32315, 656 639 8872,,,31.74137,-106.45521,8,37,1,Chihuahua,Juárez,Juárez,http://sic.gob.mx/ficha.php?table=galeria&table_id=1702,2022-04-04T05:23:15-05:00
132,999,Galería-Café El Tin-tanísmo,2007-04-16,,Av. Azcapotzalco 451,Col. El Recreo,02070,(55) 2811 6817,,juanjotintan@yahoo.com.mx,19.47164,-99.18713,9,2,1,Ciudad de México,Azcapotzalco,Azcapotzalco,http://sic.gob.mx/ficha.php?table=galeria&table_id=999,2020-10-13T03:28:20-05:00
133,988,Galería Desvelos,2010-07-30,,Norte 77 núm. 3325 ,Col. Obrero Popular,02840,55 3277 8327,,colectivodesvelos@gmail.com,19.46726,-99.17624,9,2,1,Ciudad de México,Azcapotzalco,Azcapotzalco,http://sic.gob.mx/ficha.php?table=galeria&table_id=988,2021-07-14T04:10:41-05:00
134,317,U-Tópicas:  galería feminista,2019-01-01,,Av. Miguel Hidalgo 9,Col. del Carmen Coyoacán,04100,55 7090 7078,,info@u-topicas.com,19.35145,-99.1523,9,3,1,Ciudad de México,Coyoacán,Coyoacán,http://sic.gob.mx/ficha.php?table=galeria&table_id=317,2020-10-19T07:35:40-05:00
135,898,Terraza Galerìa,2009-01-01,"Alcaldía Coyoacán, Centro de las Artes Santa Ursula",Av. Santa Ursula 191,Col. Pedregal de Santa Ursula,04600,55 5610 5649,,casusantaursula@hotmail.com,19.30949,-99.15693,9,3,1,Ciudad de México,Coyoacán,Coyoacán,http://sic.gob.mx/ficha.php?table=galeria&table_id=898,2021-05-12T08:57:08-05:00
136,1335,Estación Coyoacán  Arte Contemporáneo,2009-11-19,,Ortega 23 esq. Carrillo Puerto,Villa  Coyoacán,04100, 55 3447 9379,,estacioncoyoacan@gmail.com,19.34826,-99.16354,9,3,1,Ciudad de México,Coyoacán,Coyoacán,http://sic.gob.mx/ficha.php?table=galeria&table_id=1335,2021-05-11T08:06:49-05:00
137,951,Sala Gilberto Aceves Navarro,1999-01-01,Universidad Autónoma Metropolitana,"Calz. del Hueso 1100, Edif. A, PB  ",Col. Villa Quietud,04960,55 5483 7335,,galsur@correo.xoc.uam.mx,19.30352,-99.1024,9,3,1,Ciudad de México,Coyoacán,Coyoacán,http://sic.gob.mx/ficha.php?table=galeria&table_id=951,2021-05-12T09:19:29-05:00
138,991,Arte Hoy Galería,2011-10-15,,Viena 191-225,Col. Santa Catarina Coyoacán,04000,55 5554 0155,http://www.artehoy.com.mx/,info@artehoy.com.mx,19.35637,-99.16479,9,3,1,Ciudad de México,Coyoacán,Coyoacán,http://sic.gob.mx/ficha.php?table=galeria&table_id=991,2021-07-14T03:38:34-05:00
139,52,Galería Principal  Esmeralda,1994-11-01,Secretaría de Cultura /Centro Nacional de las Artes,Río Churubusco s/n esq. Calz. de Tlalpan,Col. Country Club,04220,"55 4155 0000 exts. 1402, 1404, 1405",https://www.cenart.gob.mx/ubicaciones/galeria-principal-esmeralda/,esmeralda@correo.cenart.mx,19.35553,-99.13915,9,3,1,Ciudad de México,Coyoacán,Coyoacán,http://sic.gob.mx/ficha.php?table=galeria&table_id=52,2020-10-14T05:50:25-05:00
140,575,Galería Alfredo Ramos Martínez,1985-07-01,Casa de Cultura Jesús Reyes Heroles,"Francisco Sosa 202, Plaza Santa Catarina",Col. Coyoacán,04000,55 5659 3937,http://cdmxtravel.com/es/lugares/galeria-alfredo-ramos-martinez.html,,19.34935,-99.17101,9,3,1,Ciudad de México,Coyoacán,Coyoacán,http://sic.gob.mx/ficha.php?table=galeria&table_id=575,2020-10-14T07:02:09-05:00
141,1474, Espacio Alternativo,1995-01-01,Centro Nacional de las Artes,Av. Río Churubusco 79,Col. Country Club,04220,55 4155 0000,https://www.cenart.gob.mx/ubicaciones/espacio-alternativo-enpeg/,,19.356,-99.14123,9,3,1,Ciudad de México,Coyoacán,Coyoacán,http://sic.gob.mx/ficha.php?table=galeria&table_id=1474,2021-05-11T07:46:21-05:00
142,899,Galería Veracruzana del Arte,1990-01-01,"Centro Cultural Veracruzano, A.C.",Miguel Angel de Quevedo 687,Col. Cuadrante de San Francisco,04320,55 5554 1633,http://centroveracruzano.blogspot.mx/,contacto@centroveracruzano.mx,19.34406,-99.16297,9,3,1,Ciudad de México,Coyoacán,Coyoacán,http://sic.gob.mx/ficha.php?table=galeria&table_id=899,2021-07-14T08:05:43-05:00
143,1193,Galería -Taller  ,1979-01-01,"Asociación Mexicana de Grabadores de Inv. Plástica, A.C.",Calle Manuel Toussaint 54,Barrio del Niño Jesús,04330,55 5554 8263,,amgip1979@gmail,19.34283,-99.15871,9,3,1,Ciudad de México,Coyoacán,Coyoacán,http://sic.gob.mx/ficha.php?table=galeria&table_id=1193,2021-07-13T09:10:56-05:00
144,37,Sala Leopoldo Méndez,1974-01-01,Universidad Autónoma Metropolitana,Calz. del Hueso  1100 PB Edif. Central,Col. Villa Quietud,04960,55 5483 7000,,,19.30336,-99.1032,9,3,1,Ciudad de México,Coyoacán,Coyoacán,http://sic.gob.mx/ficha.php?table=galeria&table_id=37,2021-05-26T05:49:08-05:00
145,939,Galería Juan Soriano de la Biblioteca de las Artes,1994-01-01,Secretaría de Cultura/Centro Nacional de las Artes,Río Churubusco 79 ,Col. Country Club,04220,55 4155 0000 ext. 1226,https://www.cenart.gob.mx/ubicaciones/bibloteca-de-las-artes/,,19.35599,-99.14114,9,3,1,Ciudad de México,Coyoacán,Coyoacán,http://sic.gob.mx/ficha.php?table=galeria&table_id=939,2020-10-15T06:36:11-05:00
146,46,Galería Central ,1994-01-01,Secretaría de Cultura/Centro Nacional de las Artes,Calz. de  Tlalpan esq. Río Churubusco ,Col. Country Club,04220,55 4155 0000 ,https://www.cenart.gob.mx/ubicaciones/galeria-central/,,19.356,-99.14121,9,3,1,Ciudad de México,Coyoacán,Coyoacán,http://sic.gob.mx/ficha.php?table=galeria&table_id=46,2021-03-01T06:13:03-06:00
147,47,Galería de Arte Electrónico Manuel Felguérez,1994-01-01,Secretaría de Cultura/Centro Nacional de las Artes,Río Churubusco 79 esq. Calz. de Tlalpan,Col. Country Club,04220,"55 4155 0000 exts. 1217, 1218",https://www.cenart.gob.mx/ubicaciones/galeria-arte-electronico/,,19.35617,-99.14286,9,3,1,Ciudad de México,Coyoacán,Coyoacán,http://sic.gob.mx/ficha.php?table=galeria&table_id=47,2020-10-20T04:25:09-05:00
148,1295,Sala René Villanueva,2013-01-01,Secretaría de Cultura/Fonoteca Nacional,Francisco Sosa 383,Col. Coyoacán,04010,55 4155 0950,https://www.fonotecanacional.gob.mx/index.php/fonoteca-nacional/actividades/exposiciones,,19.34982,-99.17696,9,3,1,Ciudad de México,Coyoacán,Coyoacán,http://sic.gob.mx/ficha.php?table=galeria&table_id=1295,2020-10-15T06:43:35-05:00
149,1203,"La Era del Arte, Suc. Coapa",2012-01-01,,"Calz. Acoxpa 430, Centro Comercial Acoxpa",Ex-Hacienda Coapa,14300,55 3921 5009,https://www.laeradelarteoficial.com.mx/,era.del.arte@gmail.com,19.29853,-99.13737,9,3,1,Ciudad de México,Coyoacán,Coyoacán,http://sic.gob.mx/ficha.php?table=galeria&table_id=1203,2022-04-06T08:37:22-05:00
150,1185,Espacio Carranza,2011-10-15,,Presidente Carranza 176 ,Col. Coyoacán,04010,55  5554 0155,https://espaciocarranza.com.mx/,info@espaciocarranza.com.mx,19.34799,-99.1651,9,3,1,Ciudad de México,Coyoacán,Coyoacán,http://sic.gob.mx/ficha.php?table=galeria&table_id=1185,2021-07-12T03:48:47-05:00
151,310,"La Era del Arte, Suc. Oasis Coyoacán",1969-01-01,,"Av. Miguel Ángel de Quevedo 227, Centro Comercial Oasis",Col. Oxtopulco,04360,55 3921 5009,https://www.laeradelarteoficial.com.mx/,era.del.arte@gmail.com,19.34549,-99.17949,9,3,1,Ciudad de México,Coyoacán,Coyoacán,http://sic.gob.mx/ficha.php?table=galeria&table_id=310,2022-04-06T08:40:18-05:00
152,714,La Quiñonera,1986-01-01,Asociación Civil,Santa Cruz 111 ,Col. Candelaria,04380 ,55 1517 1592,,coordinacion@laquinonera.com.mx,19.32821,-99.14817,9,3,1,Ciudad de México,Coyoacán,Coyoacán,http://sic.gob.mx/ficha.php?table=galeria&table_id=714,2022-04-06T08:12:46-05:00
153,1051,Galería Andrea Pozzo,2008-01-01,Universidad Iberoamericana ,Prol. Paseo de la Reforma 880,Col. Lomas de Santa Fe,01219,55 5950 4000,http://andreapozzoibero.blogspot.mx/,galeria.andreapozzo@ibero.mx; carlos.villanueva@uia.mx,19.37184,-99.26358,9,4,1,Ciudad de México,Cuajimalpa de Morelos,Cuajimalpa de Morelos,http://sic.gob.mx/ficha.php?table=galeria&table_id=1051,2022-03-08T03:25:04-06:00
154,165,Galería Daliana,2021-05-14,Centro Santa Fe,"Vasco de Quiroga 3800, local 1018",Lomas de Santa Fe,05348,55 4010 0214,https://www.galeriadaliana.com/,alex@magicspace.mx,19.36036,-99.27447,9,4,1,Ciudad de México,Cuajimalpa de Morelos,Cuajimalpa de Morelos,http://sic.gob.mx/ficha.php?table=galeria&table_id=165,2021-07-20T06:42:24-05:00
155,1294,YellowKorner Santa Fe,2016-01-01,,"Av. Vasco de Quiroga 3850, local 1540",Col. Santa Fe Cuajimalpa,05109,55 5280 2050,,galeria.santafe@yellowkorner.com ,19.36241,-99.27251,9,4,1,Ciudad de México,Cuajimalpa de Morelos,Cuajimalpa de Morelos,http://sic.gob.mx/ficha.php?table=galeria&table_id=1294,2020-10-13T04:18:03-05:00
156,1292,"La Era del Arte, Suc. Santa Fe",2011-01-10,,Vasco de Quiroga 3800,Lomas de Santa Fe,05348,55 3921 5009,https://www.laeradelarteoficial.com.mx/,era.del.arte@gmail.com,19.36952,-99.25652,9,4,1,Ciudad de México,Cuajimalpa de Morelos,Cuajimalpa de Morelos,http://sic.gob.mx/ficha.php?table=galeria&table_id=1292,2022-04-06T08:38:54-05:00
157,1676,Galería Loreto Encina de Avilés,1992-06-28,Alcaldía  Cuajimalpa/Edificio Cultural,Av. Juárez esq. Av. México s/n,Col. Cuajimalpa de Morelos,05000,55 5814 1100 ext. 2210,,,19.35742,-99.29766,9,4,65,Ciudad de México,Cuajimalpa de Morelos,El Boji (San Jacinto),http://sic.gob.mx/ficha.php?table=galeria&table_id=1676,2020-11-06T04:12:01-06:00
158,1525,Galería  Abierta del Bosque de Aragón,2000-01-01,Secretaría de Cultura de la Ciudad de México,José Loreto Fabela s/n,"Col. San Juán de Aragón, Sec. II",07969,,,,19.46287,-99.07932,9,5,1,Ciudad de México,Gustavo A. Madero,Gustavo A. Madero,http://sic.gob.mx/ficha.php?table=galeria&table_id=1525,2021-04-12T04:32:54-05:00
159,1528,Galería Abierta del Instituto Mexicano del Petróleo,2000-01-01,Instituto Mexicano del Petróleo,Eje Central Lázaro Cárdenas 152,Col. San Bartolo Atepehuacan,07730,55 9175 6000,,comunicacion@imp.mx,19.4899,-99.1459,9,5,1,Ciudad de México,Gustavo A. Madero,Gustavo A. Madero,http://sic.gob.mx/ficha.php?table=galeria&table_id=1528,2020-04-23T14:25:56-05:00
160,1529,Galería Abierta del IPN,2000-01-01,Instituto Politécnico Nacional (IPN),Av. Wilfrido Massieu s/n,Col. Lindavista,07738,,,,19.49685,-99.14106,9,5,1,Ciudad de México,Gustavo A. Madero,Gustavo A. Madero,http://sic.gob.mx/ficha.php?table=galeria&table_id=1529,2020-04-20T10:04:56-05:00
161,1170,Galería Maestro Antonio Rodríguez,1994-01-01,Instituto Politécnico Nacional,Av. Wilfrido Massieu s/n,Col. Nueva Industrial Vallejo,07738,55 5729 6000 ext. 53674,https://www.ipn.mx/cultura/nuestros-espacios.html,,19.49598,-99.1357,9,5,1,Ciudad de México,Gustavo A. Madero,Gustavo A. Madero,http://sic.gob.mx/ficha.php?table=galeria&table_id=1170,2022-05-20T08:24:36-05:00
162,1530,Galería Abierta del CINVESTAV,2009-01-01,Instituto Politécnico Nacional,Av. Instituto Politécnico Nacional 2508,Col. San Pedro Zacatenco,07360,55 5747 3800 ext. 1475,,difusion@cinvestav.mx,19.50962,-99.12902,9,5,1,Ciudad de México,Gustavo A. Madero,Gustavo A. Madero,http://sic.gob.mx/ficha.php?table=galeria&table_id=1530,2020-04-21T06:48:24-05:00
163,1596,Sala de Colecciones Universitarias,2007-01-01,Centro Cultural Universitario Tlatelolco/UNAM,Ricardo Flores Magón 1,Col. Nonoalco Tlatelolco,06995,55 5117 2818 ext. 49613,https://tlatelolco.unam.mx/,ccutlatelolco@gmail.com,19.4503,-99.13746,9,5,1,Ciudad de México,Gustavo A. Madero,Gustavo A. Madero,http://sic.gob.mx/ficha.php?table=galeria&table_id=1596,2021-07-13T04:25:23-05:00
164,1512,Galería  de Arte del Faro Indios Verdes,2015-06-01,Secretaría de Cultura de la Ciudad de México,Av. Huitzilihuitl 51,Col. Santa Isabel Tola,07010,55 5781 6900,,faroindiosverdes12@gmail.com,19.50225,-99.11227,9,5,1,Ciudad de México,Gustavo A. Madero,Gustavo A. Madero,http://sic.gob.mx/ficha.php?table=galeria&table_id=1512,2022-03-08T03:45:34-06:00
165,1916,Espacio de Arte,2019-03-23,Estadio Alfredo Harp Helú,Viaducto Río de la Piedad s/n,Cd. Deportiva Magdalena Mixihuca,08400,55 9128 7223,https://estadioahh.com/espacio-de-arte,goytortua@estadioahh.com,19.40325,-99.08504,9,6,1,Ciudad de México,Iztacalco,Iztacalco,http://sic.gob.mx/ficha.php?table=galeria&table_id=1916,2022-05-11T07:27:01-05:00
166,1567,Galería Principal del Faro de Oriente,2000-01-01,Secretaría de Cultura de la ciudad de México,Ignacio Zaragoza s/n,Col. Fuentes de Zaragoza,09150,55 5738 7442,,cdifusion.farodeoriente@gmail.com,19.3699,-99.01009,9,7,1,Ciudad de México,Iztapalapa,Iztapalapa,http://sic.gob.mx/ficha.php?table=galeria&table_id=1567,2020-10-13T05:25:13-05:00
167,63,Galería Central,2000-01-01,"Secretaría de Cultura de la Ciudad de México/Faro de Oriente, Fábrica de Artes y Oficios",Ignacio Zaragoza s/n,Col. Fuentes de Zaragoza,09150,55 5738 7443,http://www.farodeoriente.org/faro-oriente/,farodeoriente@hotmail.com,19.36941,-99.01051,9,7,1,Ciudad de México,Iztapalapa,Iztapalapa,http://sic.gob.mx/ficha.php?table=galeria&table_id=63,2020-04-20T04:08:23-05:00
168,1044,Casa del Obispo Galeria de Arte Popular Mexicano,2011-01-01,,Benito Juárez 1,Col. San Ángel,01000,55 5616 9079,, schumi74@gmail.com,19.34529,-99.19318,9,10,1,Ciudad de México,Álvaro Obregón,Álvaro Obregón,http://sic.gob.mx/ficha.php?table=galeria&table_id=1044,2021-09-08T11:44:59-05:00
169,130,Galería El Aire Centro de Arte,2013-12-01,Fundación Parra Gironella,Reforma 17,Col. Tizapan Pueblo,01090,55 5616 6222,http://carmenparra.com.mx/,el_aire@yahoo.com,19.35293,-99.1926,9,10,1,Ciudad de México,Álvaro Obregón,Álvaro Obregón,http://sic.gob.mx/ficha.php?table=galeria&table_id=130,2021-07-08T12:08:57-05:00
170,606,Galería José Luis Benlliure,1985-01-01,Universidad Nacional Autónoma de México/Facultad de Arquitectura,Av. Insurgentes Sur 3000,Cd. Universitaria,04510,"55 5616 0545, 55 5622 0211",http://arquitectura.unam.mx/difusioacuten-cultural.html,difusionculturalarquitectura@gmail.com,19.32672,-99.18208,9,10,1,Ciudad de México,Álvaro Obregón,Álvaro Obregón,http://sic.gob.mx/ficha.php?table=galeria&table_id=606,2020-04-29T08:58:32-05:00
171,1138,Sheva's Heart Galería de Arte,1988-04-21,,Av. de la Paz 40  ,Col. San Angel,01000,55 6587 3853,https://shevasheart.wordpress.com/,shevasheart@gmail.com,19.34685,-99.18953,9,10,1,Ciudad de México,Álvaro Obregón,Álvaro Obregón,http://sic.gob.mx/ficha.php?table=galeria&table_id=1138,2021-08-30T09:04:56-05:00
172,570,"Pepe Soho Photography, Suc. San  Ángel ",1996-01-01,,"Av. Altavista 147, local 2",Col. San Ángel Inn ,01060,55 9688 6822,http://www.pepesoho.com/es/,ventas@pepesoho.com,19.34932,-99.19639,9,10,1,Ciudad de México,Álvaro Obregón,Álvaro Obregón,http://sic.gob.mx/ficha.php?table=galeria&table_id=570,2022-04-06T08:16:48-05:00
173,467,Naxica Galería de Arte,2004-01-01,,Ricardo Palmerín 103 ,Col. Guadalupe Inn,01020,55 5705 1051,http://naxicagaleriadearte.tumblr.com/,naxicagaleriadearte@gmail.com,19.35647,-99.18842,9,10,1,Ciudad de México,Álvaro Obregón,Álvaro Obregón,http://sic.gob.mx/ficha.php?table=galeria&table_id=467,2022-04-07T04:19:35-05:00
174,159,"Galería Alianza Francesa Ciudad de México, San Ángel",1980-01-01,Alianza Francesa de México,Plaza San Luis Potosí 26,Col. Chimalistac,01070,55 1084 4190,https://www.alianzafrancesamx.edu.mx/centros/san-angel/instalaciones,afmangeldir@alianzafrancesa.org.mx,19.34845,-99.18639,9,10,1,Ciudad de México,Álvaro Obregón,Álvaro Obregón,http://sic.gob.mx/ficha.php?table=galeria&table_id=159,2021-09-13T06:28:51-05:00
175,1127,Galería Mosaico,2012-01-01,,Plaza San Jacinto 2,Col. San Angel,01000,55 1353 3817,http://galeriamosaico.com/,info@galeriamosaico.com,19.34502,-99.19205,9,10,1,Ciudad de México,Álvaro Obregón,Álvaro Obregón,http://sic.gob.mx/ficha.php?table=galeria&table_id=1127,2020-04-23T04:13:48-05:00
176,1564,Santa Olalla Arte y Diseño,1000-01-01,,Jacinto 16,Plaza San Jacinto,01000,55 6787 6086,,kaos@santaolallart.design,19.3444,-99.19304,9,10,1,Ciudad de México,Álvaro Obregón,Álvaro Obregón,http://sic.gob.mx/ficha.php?table=galeria&table_id=1564,2020-04-23T04:10:44-05:00
177,1206,Galería Arte Abierto,2012-01-01,Artz Pedregal,Anillo Periférico Sur 3720,Col. Jardines del Pedregal,01900,55 8525 4500,https://artzpedregal.mx/arte-abierto/,,19.31337,-99.21937,9,10,1,Ciudad de México,Álvaro Obregón,Álvaro Obregón,http://sic.gob.mx/ficha.php?table=galeria&table_id=1206,2021-09-08T12:48:58-05:00
178,41,Baga 06 - Galería de Arte,2018-04-01,,Pedro Luis Ogazón 59,Col. Guadalupe Inn,01020,55 5801 3037,https://baga06.com/,contacto@baga06.com,19.35035,-99.18801,9,10,1,Ciudad de México,Álvaro Obregón,Álvaro Obregón,http://sic.gob.mx/ficha.php?table=galeria&table_id=41,2021-09-08T08:33:45-05:00
179,49,Galería Adán,1998-01-01,Alcaldía Alvaro Obregón/Casa de Cultura Jaime Sabines,Av. Revolución 1747,Col. San Ángel,01000,55 5550 3134,http://cdmxtravel.com/en/attractions/galeria-adan.html,casadeculturajaimesabines@gmail.com,19.34483,-99.19053,9,10,1,Ciudad de México,Álvaro Obregón,Álvaro Obregón,http://sic.gob.mx/ficha.php?table=galeria&table_id=49,2021-09-08T12:46:49-05:00
180,1542,Flux Zone Galería de Arte,1000-01-01,,Amargura 5,Col.  San Ángel ,01000,55  6719 1033,https://www.flux-zone.art/en/,contacto@flux-zone.art ,19.34616,-99.19074,9,10,1,Ciudad de México,Álvaro Obregón,Álvaro Obregón,http://sic.gob.mx/ficha.php?table=galeria&table_id=1542,2021-09-08T12:38:29-05:00
181,992,El Carmen Galería de Arte,2012-01-26,"El Carmen Galería de Arte, S. de R.L de C.V.",Plaza San Jacinto 20 Bis,Col. San Ángel,01000,55 5550 5502,,arteelcarmengaleria@gmail.com,19.34486,-99.19236,9,10,1,Ciudad de México,Álvaro Obregón,Álvaro Obregón,http://sic.gob.mx/ficha.php?table=galeria&table_id=992,2021-09-08T12:00:58-05:00
182,1563,Galería García Amaro,2011-01-01,,Benito Juárez 9 A,Col. San Ángel,01000,55 5550 4207,,galeria@garciaamaro.com,19.34512,-99.19371,9,10,1,Ciudad de México,Álvaro Obregón,Álvaro Obregón,http://sic.gob.mx/ficha.php?table=galeria&table_id=1563,2021-09-14T15:31:27-05:00
183,1892,Caracol  Púrpura,1000-01-01,,"Benito Juárez 2D, Local 2A",Col. San Ángel,,55 7828 2725,https://caracolpurpura.com.mx/,maria.mora@caracolpurpura.com.mx,19.34476,-99.19299,9,10,1,Ciudad de México,Álvaro Obregón,Álvaro Obregón,http://sic.gob.mx/ficha.php?table=galeria&table_id=1892,2021-09-08T08:56:54-05:00
184,1722,Galería de Arte Riverol,1000-01-01,,Calz. Santa Catarina 207,Col. San Ángel Inn,01060,55 6733 4647,,contacto@arteriverol.com,19.34895,-99.19836,9,10,1,Ciudad de México,Álvaro Obregón,Álvaro Obregón,http://sic.gob.mx/ficha.php?table=galeria&table_id=1722,2021-09-08T13:06:45-05:00
185,1248,Rodo Padilla Galería,1992-01-01,,Juárez 2B,San Ángel,01000,55 5550 2431,http://www.rodopadilla.com/,info@rodopadilla.com.mx,19.3448,-99.19315,9,10,1,Ciudad de México,Álvaro Obregón,Álvaro Obregón,http://sic.gob.mx/ficha.php?table=galeria&table_id=1248,2020-04-21T13:55:07-05:00
186,1135,Myl. Arte Contemporáneo,2012-10-14,,Durango 75,Col. Progreso Tizapán,01080,55 5668 2244,https://www.myl.mx/,curaduria@mylartecontemporaneo.org,19.33997,-99.20359,9,10,1,Ciudad de México,Álvaro Obregón,Álvaro Obregón,http://sic.gob.mx/ficha.php?table=galeria&table_id=1135,2022-04-07T04:16:42-05:00
187,1833,Galería de Arte del Cine Villa Olímpica,1000-01-01,AlcaldíaTlalpan,Av. Insurgentes Sur 3493,Col. Jardines del Pedregal,14020,55 5568 2043,https://culturatlalpan.wixsite.com/cinevillaolimpica/galeria,cinevillaolimpica@gmail.com,19.29783,-99.18587,9,12,0,Ciudad de México,Tlalpan,,http://sic.gob.mx/ficha.php?table=galeria&table_id=1833,2021-07-12T07:24:58-05:00
188,1286,Galería Yuri López Kullins,2014-11-01,,"Insurgentes Sur 4342, local 14B ",Col. La Joya,14000,55 1698 5097 ,http://yurilopezkullins.com/,info@yurilopezkullins.com,19.28828,-99.16694,9,12,1,Ciudad de México,Tlalpan,Tlalpan,http://sic.gob.mx/ficha.php?table=galeria&table_id=1286,2020-07-22T17:00:41-05:00
189,430,Galería Manuel Felguérez,1980-01-01,Universidad Autónoma Metropolitana,Prol. Canal de Miramontes 3855 P.B. de Rectoría,Col. Ex Hacienda de San Juan de Dios,14387,55 5483 4173,http://www.uam.mx/difusion/plasticas/josecastro.html,contacto.dav.uam@gmail.com,19.301,-99.10338,9,12,1,Ciudad de México,Tlalpan,Tlalpan,http://sic.gob.mx/ficha.php?table=galeria&table_id=430,2021-02-15T06:22:35-06:00
190,1921,Galería Museo de Historia de Tlalpan ,2003-09-18,"Alcaldía Tlalpan/Dirección General de Derechos Culturales y Educativos/Jefatura de Unidad Departamental de Recintos Culturales, Promoción Artística y Cultural",Plaza de la Constitución 10 ,Col. Tlalpan Centro,14000,"55 5483 1500 exts. 7303, 7306",https://www.tlalpan.cdmx.gob.mx/culturaengrande/; https://www.tlalpan.cdmx.gob.mx/,mcuencat@tlalpan.cdmx.gob.mx; prodriguez1@tlalpan.cdmx.gob.mx,19.28828,-99.16694,9,12,1,Ciudad de México,Tlalpan,Tlalpan,http://sic.gob.mx/ficha.php?table=galeria&table_id=1921,2022-06-20T06:12:49-05:00
191,1556,Galeria de Arte de la Casa Xitla,2013-08-01,"Asociación Civil, Lekil Kuxlejal",Calle Convento núm. 37,Col. Santa Úrsula Xitla,14420,55 5573 3360 ,https://casaxitla.org/portfolio/sala-isadora-duncan/,info@casaxitla.org,19.28828,-99.16694,9,12,1,Ciudad de México,Tlalpan,Tlalpan,http://sic.gob.mx/ficha.php?table=galeria&table_id=1556,2021-07-14T03:56:39-05:00
192,977,"La Era del Arte, Suc. Perisur",2013-03-08,,Anillo Perif. 4690,Jardines del Pedregal,04500, 55 3664 2179,,era.del.arte@gmail.com,19.30497,-99.18706,9,12,1,Ciudad de México,Tlalpan,Tlalpan,http://sic.gob.mx/ficha.php?table=galeria&table_id=977,2022-04-06T08:36:02-05:00
193,1527,TACO Talleres de arte contemporáneo,2008-01-01,"TACO Talleres de arte contemporáneo, A.C",Hidalgo 14,Centro,14000, 55 5171 4215,,tacoarte@gmail.com,19.28856,-99.16467,9,12,1,Ciudad de México,Tlalpan,Tlalpan,http://sic.gob.mx/ficha.php?table=galeria&table_id=1527,2021-05-20T07:34:56-05:00
194,1920,Galería Casa Frissac ,2000-05-01,Alcaldía Tlalpan/Dirección General de Derechos Culturales y Educativos,Moneda s/n,Col. Tlalpan Centro,14000,"55 5483 1500 exts. 7303, 7306",https://www.tlalpan.cdmx.gob.mx/culturaengrande/; https://www.tlalpan.cdmx.gob.mx/,mcuencat@tlalpan.cdmx.gob.mx; prodriguez1@tlalpan.cdmx.gob.mx,19.28825,-99.16708,9,12,1,Ciudad de México,Tlalpan,Tlalpan,http://sic.gob.mx/ficha.php?table=galeria&table_id=1920,2022-06-20T05:20:00-05:00
195,954,Galería Francisco Goitia,2019-12-23,Alcaldía Xochimilco,Av. Guadalupe I. Ramirez  4 ,El Rosario,16070, 55 5334 0600,,,19.26301,-99.10355,9,13,1,Ciudad de México,Xochimilco,Xochimilco,http://sic.gob.mx/ficha.php?table=galeria&table_id=954,2021-07-14T05:08:30-05:00
196,481,Galería Luis Nishizawa,1985-01-01,Facultad de Artes y Diseño/Universidad Nacional Autónoma de México,Constitución 600 ,Col. Barrio La Concha,16210,55 5489 4921 ext. 124,,difusiónenap@correo.unam.mx,19.25191,-99.11856,9,13,1,Ciudad de México,Xochimilco,Xochimilco,http://sic.gob.mx/ficha.php?table=galeria&table_id=481,2020-10-20T05:24:20-05:00
197,1402,Galería Tu Mamá,2016-09-01,,4a. Privada de Emiliano Zapata 42-1,Barrio La Asunción,16070,55 5101 2623,https://galeriatumama.com/,galeriatumama@gmail.com,19.26617,-99.10112,9,13,1,Ciudad de México,Xochimilco,Xochimilco,http://sic.gob.mx/ficha.php?table=galeria&table_id=1402,2021-06-03T08:00:51-05:00
198,1403,"La Era del Arte, suc. Plaza Universidad",2013-03-01,,"Av. Universidad 1000, Plaza Universidad", Col. Santa Cruz Atoyac,03310,55 3921 5009,https://www.laeradelarteoficial.com.mx/contacto,era.del.arte@gmail.com,19.36711,-99.16615,9,14,1,Ciudad de México,Benito Juárez,Benito Juárez,http://sic.gob.mx/ficha.php?table=galeria&table_id=1403,2022-04-06T08:38:11-05:00
199,132,Tasting Art,2015-01-01,, Plaza San Jacinto 20 ,San Angel,01000,55 5419 4553,http://www.tastingart.mx/,contacto@tastingart.mx,19.3439,-99.19253,9,14,1,Ciudad de México,Benito Juárez,Benito Juárez,http://sic.gob.mx/ficha.php?table=galeria&table_id=132,2021-07-14T08:24:06-05:00
200,1459,Galería Sor Juan Inés de la Cruz,1000-01-01,Centro Cultural Juan Rulfo,Campana 59,Col. Insurgentes Mixcoac,03920,55 5598 1656,http://cdmxtravel.com/es/lugares/centro-cultural-juan-rulfo.html,,19.37199,-99.18457,9,14,1,Ciudad de México,Benito Juárez,Benito Juárez,http://sic.gob.mx/ficha.php?table=galeria&table_id=1459,2020-10-13T05:38:16-05:00
201,1526,Galería de la Cineteca Nacional,2015-08-12,Secretaría de Cultura ,Av. México Coyoacán 389,Col. Xoco,03330,55 4155 1200,https://www.cinetecanacional.net/controlador.php?opcion=GLRA,,19.36011,-99.16369,9,14,1,Ciudad de México,Benito Juárez,Benito Juárez,http://sic.gob.mx/ficha.php?table=galeria&table_id=1526,2020-10-13T05:34:31-05:00
202,1460,Galería José Chávez Morado,1975-01-01,Casa de Cultura Juan Rulfo/Alcaldía Benito Juárez,Campana 59,Col. Insurgentes Mixcoac,03920,55 5598 1656,http://cdmxtravel.com/es/lugares/centro-cultural-juan-rulfo.html,,19.37197,-99.18443,9,14,1,Ciudad de México,Benito Juárez,Benito Juárez,http://sic.gob.mx/ficha.php?table=galeria&table_id=1460,2020-10-13T05:29:59-05:00
203,1725,Estudio URSS,2020-01-31,,Av Revolución 557 piso 1,Col. San Pedro de los Pinos,03800,,,adriana@ussr.mx,19.38604,-99.18665,9,14,1,Ciudad de México,Benito Juárez,Benito Juárez,http://sic.gob.mx/ficha.php?table=galeria&table_id=1725,2021-07-21T09:51:38-05:00
204,462,Galería Rafael Rabec,2014-01-01,,Calle Diecinueve 89-A ,Col. San Pedro de los Pinos,03800,55 5515 6371,http://www.galeriarafaelrabec.com/,informes@galeriarafaelrabec.com,19.38802,-99.18369,9,14,1,Ciudad de México,Benito Juárez,Benito Juárez,http://sic.gob.mx/ficha.php?table=galeria&table_id=462,2020-12-02T05:16:40-06:00
205,989,Galería Inverarte,2000-01-01,,Santa Rosalía 409,Col. Del Valle,03100,55 5559 3208  ,http://www.inverarte.com/,info@inverarte.com,19.38095,-99.17508,9,14,1,Ciudad de México,Benito Juárez,Benito Juárez,http://sic.gob.mx/ficha.php?table=galeria&table_id=989,2021-07-14T05:12:08-05:00
206,479,Galería Alfredo Atala Boulos ,1000-01-01,"Centro Libanés, A.C.",Hermes 67,Col. Crédito Constructor,03940,55 5228 9933,http://www.centrolibanes.org.mx,,19.36355,-99.18026,9,14,1,Ciudad de México,Benito Juárez,Benito Juárez,http://sic.gob.mx/ficha.php?table=galeria&table_id=479,2020-10-13T05:48:44-05:00
207,1475,SOMA,2009-11-01,,Calle 13 núm. 25 ,Col. San Pedro de los Pinos,03800,55 5277 4947,http://somamexico.org,info@somamexico.org,19.3905,-99.18551,9,14,1,Ciudad de México,Benito Juárez,Benito Juárez,http://sic.gob.mx/ficha.php?table=galeria&table_id=1475,2020-11-06T04:40:34-06:00
208,566,Fundación Sebastián,1997-11-13,Fundación Cultural Sebastián A.C.,Av. Patriotismo 304,Col. San Pedro de los Pinos,03800,55 5272 0539,http://www.fundacionsebastian.org/2014/,contacto@fseb.org,19.39307,-99.18211,9,14,1,Ciudad de México,Benito Juárez,Benito Juárez,http://sic.gob.mx/ficha.php?table=galeria&table_id=566,2022-04-06T08:20:30-05:00
209,1882,Galería Málaga,2012-08-25,,Málaga 92,Col. Insurgentes Mixcoac,03920 ,55 5615 5393 	,https://galeriamalaga.com/index.php/es/,galeriamalagamexico@gmail.com,19.37196,-99.1821,9,14,1,Ciudad de México,Benito Juárez,Benito Juárez,http://sic.gob.mx/ficha.php?table=galeria&table_id=1882,2021-12-16T06:42:15-06:00
210,1572,Galería V&S ,2013-10-01,,Xola 1662,Col. Narvarte,03020,55 7826 4185,,info@galeria-vs.com,19.39565,-99.14984,9,14,1,Ciudad de México,Benito Juárez,Benito Juárez,http://sic.gob.mx/ficha.php?table=galeria&table_id=1572,2020-11-09T06:04:33-06:00
211,1648,Galería Panteón,2016-01-28,Gobierno de la Cudad de México/Centro Cultural Panteón,Donceles 64,Centro,06600,55 5264 2095,https://panteon.negocio.site/,infopanteonmx@gmail.com,19.43628,-99.13508,9,15,1,Ciudad de México,Cuauhtémoc,Cuauhtémoc,http://sic.gob.mx/ficha.php?table=galeria&table_id=1648,2021-07-13T09:22:33-05:00
212,232,Galería Celda Contemporánea,2004-04-19,Universidad del Claustro de Sor Juana,Izazaga 92 ,Centro,06080,55 5130 3300,http://www.ucsj.edu.mx/conocenos/instalaciones/celda-contempor%C3%A1nea.html,celdacontemporanea@gmail.com,19.42653,-99.13593,9,15,1,Ciudad de México,Cuauhtémoc,Cuauhtémoc,http://sic.gob.mx/ficha.php?table=galeria&table_id=232,2021-07-12T07:09:18-05:00
213,1500,Galería Afirme,2015-05-28,Fundación Villacero,Plaza de la República 26 piso 1,Col. Cuauhtémoc,06030,55 5140 3000 ext. 262021,https://www.galeriaafirme.com/,herbert.perdomo@galeriaafirme.com,19.43527,-99.15468,9,15,1,Ciudad de México,Cuauhtémoc,Cuauhtémoc,http://sic.gob.mx/ficha.php?table=galeria&table_id=1500,2021-03-01T05:05:33-06:00
214,499,Galería José García,2015-01-01,,Sabino 276,Col. Santa María  la Ribera,06400,55 5207 6883,http://josegarcia.mx/,info@josegarcia.mx,19.4542,-99.15907,9,15,1,Ciudad de México,Cuauhtémoc,Cuauhtémoc,http://sic.gob.mx/ficha.php?table=galeria&table_id=499,2020-04-21T13:58:27-05:00
215,1011,Galería Goya,2014-02-01,Foro Cultural Goya,"Av. Chapultepec 151, int. 16",Col. Juárez,06700,55 4444 2299,,galeriagoya@hotmail.com,19.42697,-99.15647,9,15,1,Ciudad de México,Cuauhtémoc,Cuauhtémoc,http://sic.gob.mx/ficha.php?table=galeria&table_id=1011,2020-11-06T06:22:50-06:00
216,1830,Ladrón Galería,2015-01-01,,José María Barragán núm. 383 ,Col. Buenos Aires,06780,"55 4659 7253, 4861 8580 ",,ladrongaleria@gmail.com,19.40632,-99.14667,9,15,1,Ciudad de México,Cuauhtémoc,Cuauhtémoc,http://sic.gob.mx/ficha.php?table=galeria&table_id=1830,2021-03-03T04:41:59-06:00
217,1847, Galería de Arte Memorias de Utopía ,2016-01-01,Corporativo Pascual,Clavijero 60,Col. Tránsito,06840, 55 5132 0830,https://www.pascual.com.mx/fundacion-cultural/,fundacionpascual@prodigy.net.mx  ,19.42044,-99.12936,9,15,1,Ciudad de México,Cuauhtémoc,Cuauhtémoc,http://sic.gob.mx/ficha.php?table=galeria&table_id=1847,2021-07-14T03:34:08-05:00
218,696,Galería Traeger and Pinto,1999-01-01,,Colima 179,Col. Roma,06700,55 5525 4500,https://galeriasmx.com/galerias/traeger-pinto-galeria/,traeger@traeger-pinto.com,19.41992,-99.16058,9,15,1,Ciudad de México,Cuauhtémoc,Cuauhtémoc,http://sic.gob.mx/ficha.php?table=galeria&table_id=696,2021-07-13T07:53:05-05:00
219,1038,Specta Galería,2019-12-17,,Nápoles 60,Col. Juárez,06600, 55 3506 0042,http://spectagaleria.com/,contacto@spectagaleria.com,19.42623,-99.15962,9,15,1,Ciudad de México,Cuauhtémoc,Cuauhtémoc,http://sic.gob.mx/ficha.php?table=galeria&table_id=1038,2021-03-16T06:53:33-06:00
220,1168,Galería PEQUOD CO.,2020-06-01,,Lancaster 29,Col. Juárez,06600,55 2462 0103,https://www.pequodco.com/,paulina@pequodco.com,19.42552,-99.16771,9,15,1,Ciudad de México,Cuauhtémoc,Cuauhtémoc,http://sic.gob.mx/ficha.php?table=galeria&table_id=1168,2020-11-13T03:34:55-06:00
221,1234,Art Space México,2014-01-01,,Campeche 281,Col. Condesa,06100,55 1800 2003   ,,contacto@artspacemexico.com,19.40844,-99.17075,9,15,1,Ciudad de México,Cuauhtémoc,Cuauhtémoc,http://sic.gob.mx/ficha.php?table=galeria&table_id=1234,2021-04-12T04:25:59-05:00
222,534,Espacio de exhibición de Squash73,2018-03-01,Squash 73,Mtro. Antonio Caso 147,Col. San Rafael,06470,55 8434 3659,https://squash73.mx/espacio-exhibicion/,info@squash73.mx,19.43549,-99.16487,9,15,1,Ciudad de México,Cuauhtémoc,Cuauhtémoc,http://sic.gob.mx/ficha.php?table=galeria&table_id=534,2021-08-03T10:52:11-05:00
223,959,Galería  X Espacio de Arte,2011-02-04,,Av. Mazatlan 5,Col. Hipódromo Condesa,06140,55 5564 5175,https://www.xespacio.mx/,info@xespacio.mx,19.41732,-99.17559,9,15,1,Ciudad de México,Cuauhtémoc,Cuauhtémoc,http://sic.gob.mx/ficha.php?table=galeria&table_id=959,2021-03-02T03:34:27-06:00
224,1017,Galería Rullán,2010-01-01,,Insurgentes Sur 132,Col. Tabacalera,06030,55 5566 5806,,galeriaullan@hotmail.com,19.43341,-99.15817,9,15,1,Ciudad de México,Cuauhtémoc,Cuauhtémoc,http://sic.gob.mx/ficha.php?table=galeria&table_id=1017,2020-04-22T03:26:36-05:00
225,1236,Galería White Cremnitz,2014-05-08,,Bolívar 87 C,Centro,06080,044 55 2699 0710,http://www.whitecremnitz.com,info@whitecremnitz.com,19.42848,-99.13919,9,15,1,Ciudad de México,Cuauhtémoc,Cuauhtémoc,http://sic.gob.mx/ficha.php?table=galeria&table_id=1236,2020-04-23T13:21:39-05:00
226,1646,Angelo's Galería,2016-06-01,,Londres 162,Col. Juárez,06600, 55 2368 9425,,,19.42438,-99.16585,9,15,1,Ciudad de México,Cuauhtémoc,Cuauhtémoc,http://sic.gob.mx/ficha.php?table=galeria&table_id=1646,2020-12-02T09:58:17-06:00
227,187,Galería Metropolitana,1974-01-01,Universidad Autónoma Metropolitana,Av. Medellín 28,Col. Roma,06700,55 5511 0809,http://www.uam.mx/_serv_comunidad/centros_culturales.html,comunicacionyenlace.dav.uam@gmail.com,19.42137,-99.16678,9,15,1,Ciudad de México,Cuauhtémoc,Cuauhtémoc,http://sic.gob.mx/ficha.php?table=galeria&table_id=187,2020-04-23T17:26:17-05:00
228,1400,Parakata Galería Michoacana,2014-11-19,Hotel Downtown México,Isabel La Católica núm. 30,Centro Histórico,06010,55  4332 0776,,parakatagaleria@gmail.com,19.43286,-99.1366,9,15,1,Ciudad de México,Cuauhtémoc,Cuauhtémoc,http://sic.gob.mx/ficha.php?table=galeria&table_id=1400,2021-07-13T06:49:22-05:00
229,1491,Galería de Arte ISMOS,2013-01-01,Joyería Mexicana Contemporánea ,Fernando Montes de Oca 47,Col. Condesa,06140,55 5286 1535,https://www.ismosjoyeria.com.mx/home,ismosjoyeria@gmail.com,19.41313,-99.17477,9,15,1,Ciudad de México,Cuauhtémoc,Cuauhtémoc,http://sic.gob.mx/ficha.php?table=galeria&table_id=1491,2021-07-14T03:58:51-05:00
230,1919,Altar Galería,2022-02-01,Cihuah Store,Havre 68,Col. Juárez,06600,,, info@cihuah.com,19.42574,-99.16064,9,15,1,Ciudad de México,Cuauhtémoc,Cuauhtémoc,http://sic.gob.mx/ficha.php?table=galeria&table_id=1919,2022-06-13T08:43:25-05:00
231,1205,Jardín del Arte Sullivan,1958-01-01,Asociación Jardín del Arte A.C.,Sullivan s/n,Col. San Rafael,06500,,,,19.43297,-99.16228,9,15,1,Ciudad de México,Cuauhtémoc,Cuauhtémoc,http://sic.gob.mx/ficha.php?table=galeria&table_id=1205,2020-11-04T06:35:13-06:00
232,51,Proyecto H Contemporáneo,2013-01-01, ,Guadalajara 88,Col. Roma,06700,55 5211 4087,https://www.proyectoh.com/,info@proyectoh.com,19.41702,-99.17186,9,15,1,Ciudad de México,Cuauhtémoc,Cuauhtémoc,http://sic.gob.mx/ficha.php?table=galeria&table_id=51,2021-07-14T08:12:45-05:00
233,1888,Galería Yawí,1000-01-01,Calpulli Netzahualcóyotl S.C.de R.L. de C.V.,Monte de Piedad 15 -108,Centro Histórico,06000,55 2898 6634,http://arteyawi.com/,arteyawi@gmail.com,19.43335,-99.13434,9,15,1,Ciudad de México,Cuauhtémoc,Cuauhtémoc,http://sic.gob.mx/ficha.php?table=galeria&table_id=1888,2021-03-03T04:27:44-06:00
234,1022,Galería Abraham Zabludosky,1946-01-01,Secretaría de Cultura/Biblioteca de México José Vasconcelos,Plaza de la Ciudadela 4,Centro,06040,55 4155 0830,https://www.bibliotecademexico.gob.mx/info_detalle_mx.php?id=89&area=SC,,19.42862,-99.14924,9,15,1,Ciudad de México,Cuauhtémoc,Cuauhtémoc,http://sic.gob.mx/ficha.php?table=galeria&table_id=1022,2021-09-22T10:53:58-05:00
235,629,La Buena Estrella,2012-06-01,,Ignacio Manuel Altamirano 88 ,Col. San Rafael,05470,55 6267 1606,,labuenaestrella.arte@gmail.com,19.43708,-99.16271,9,15,1,Ciudad de México,Cuauhtémoc,Cuauhtémoc,http://sic.gob.mx/ficha.php?table=galeria&table_id=629,2020-05-04T12:50:42-05:00
236,1540,Galería Eugenio,2008-01-01,,Ignacio Allende 84,Centro,06010,(55) 5529 2849,,galeriaeugenio@gmail.com,19.44217,-99.13723,9,15,1,Ciudad de México,Cuauhtémoc,Cuauhtémoc,http://sic.gob.mx/ficha.php?table=galeria&table_id=1540,2021-03-01T07:21:19-06:00
237,1753,Galería Furiosa,2021-04-24,,Durango 266,Col. Roma,06700,,https://www.galeriafuriosa.com/,knock@galeriafuriosa.com,19.41933,-99.17033,9,15,1,Ciudad de México,Cuauhtémoc,Cuauhtémoc,http://sic.gob.mx/ficha.php?table=galeria&table_id=1753,2021-11-25T07:29:44-06:00
238,1695,Galería Vórtice,2015-08-01,,Tabasco 210,Col. Roma,06700,55 5514 4820,https://www.galeriavortice.com/contacto/,info@galeriavortice.com ,19.41845,-99.16243,9,15,1,Ciudad de México,Cuauhtémoc,Cuauhtémoc,http://sic.gob.mx/ficha.php?table=galeria&table_id=1695,2020-12-02T04:22:21-06:00
239,1619,Licenciado Galería,2015-11-27,,Tabasco 216,Col. Roma,06700,55  6726 6400,http://licenciado.gallery/,info@conlicenciado.com,19.41858,-99.16271,9,15,1,Ciudad de México,Cuauhtémoc,Cuauhtémoc,http://sic.gob.mx/ficha.php?table=galeria&table_id=1619,2021-03-03T04:43:28-06:00
240,1508,Espacio Galería 1 mes 1 artista,2013-02-01,,Artículo 123 núm. 123,Centro,06600,55 5521 7134,https://articulo123.com/galeria/,1mes1artista@gmail.com,19.43335,-99.14996,9,15,1,Ciudad de México,Cuauhtémoc,Cuauhtémoc,http://sic.gob.mx/ficha.php?table=galeria&table_id=1508,2021-05-11T08:04:44-05:00
241,832,Galería Toca,2009-01-01,,Colima 174 esq. Orizaba,Col. Roma Norte,06700,55 5525 7614,,info@tocagaleria.com,19.41969,-99.15981,9,15,1,Ciudad de México,Cuauhtémoc,Cuauhtémoc,http://sic.gob.mx/ficha.php?table=galeria&table_id=832,2021-03-03T04:21:44-06:00
242,1490,Can Can Projects,2021-08-01,,Marsella 56  ,Col. Juárez,06600, 56 2016 1600,https://www.cancanprojects.com/contacto, cancanprojects@gmail.com,19.42589,-99.15874,9,15,1,Ciudad de México,Cuauhtémoc,Cuauhtémoc,http://sic.gob.mx/ficha.php?table=galeria&table_id=1490,2022-06-23T05:16:28-05:00
243,1889,Galería Daniel Liebsohn,2018-03-01,,Londres 161,Col. Juárez,06600,55 5525 2050,http://liebsohn.com.mx/,galeria@liebsohn.com,19.42476,-99.16579,9,15,1,Ciudad de México,Cuauhtémoc,Cuauhtémoc,http://sic.gob.mx/ficha.php?table=galeria&table_id=1889,2021-07-12T07:11:38-05:00
244,883,"Casa Milán, Arte y Taller",2019-10-30,,Milán 41,Col. Juárez,06170,55 1519 1214,https://casamilan.com.mx/,contacto@casamilan.com.mx,19.43037,-99.15678,9,15,1,Ciudad de México,Cuauhtémoc,Cuauhtémoc,http://sic.gob.mx/ficha.php?table=galeria&table_id=883,2021-07-12T03:14:53-05:00
245,1330,"ATEA, Arte/Taller-Estudio/Arquitectura",2011-11-04,,"Topacio 25, piso 1",Centro,06010,55 5542 6098,https://ateacdmx.org/,ateacdmx@gmail.com,19.42508,-99.12835,9,15,1,Ciudad de México,Cuauhtémoc,Cuauhtémoc,http://sic.gob.mx/ficha.php?table=galeria&table_id=1330,2021-05-11T07:51:17-05:00
246,1634,"Hydra, Fotografía contemporánea en México",2013-01-01,,Tampico 33,Col. Roma Norte,06700,55 6819 9872,https://hydra.lat/pages/nosotros_si,enlace@lahydra.lat,19.41918,-99.17518,9,15,1,Ciudad de México,Cuauhtémoc,Cuauhtémoc,http://sic.gob.mx/ficha.php?table=galeria&table_id=1634,2021-05-18T08:12:14-05:00
247,181,Galería El Estudio,1995-01-01,"Fundación  Casa del Poeta, I.A.P.",Álvaro Obregón 73,Col. Roma,06700,55 5208 8205,,galeriaelestudio@prodigy.net.mx,19.41892,-99.15847,9,15,1,Ciudad de México,Cuauhtémoc,Cuauhtémoc,http://sic.gob.mx/ficha.php?table=galeria&table_id=181,2021-12-16T06:25:10-06:00
248,1005,Marso Galería Arte Contemporáneo,2012-11-01,,Berlín 37 ,Col.  Juárez ,06600,55 6276 2275,https://fundacionmarso.org/es/about/,info@marso.com.mx,19.42636,-99.15657,9,15,1,Ciudad de México,Cuauhtémoc,Cuauhtémoc,http://sic.gob.mx/ficha.php?table=galeria&table_id=1005,2022-05-20T08:26:20-05:00
249,1493,Dos Quince Galería,2014-11-01,,Guanajuato 215,Col. Roma Norte,06700,55 6729 3389,https://cargocollective.com/dosquincegaleria/estudio-galeria,galeria.dosquince@gmail.com,19.41599,-99.16405,9,15,1,Ciudad de México,Cuauhtémoc,Cuauhtémoc,http://sic.gob.mx/ficha.php?table=galeria&table_id=1493,2021-03-02T03:15:49-06:00
250,1487,Angulo Cero,2014-01-01,,"Chihuahua 56, piso 2",Col. Roma,06700,55 6724 7067,http://www.angulo0.com/about/?lang=es,info@angulo0.com,19.41783,-99.15675,9,15,1,Ciudad de México,Cuauhtémoc,Cuauhtémoc,http://sic.gob.mx/ficha.php?table=galeria&table_id=1487,2020-10-15T03:38:09-05:00
251,1313,La Trampa Gráfica Contemporánea,2009-01-01,,Aldaco s/n esq. Vizcaínas,Centro,06080,55 5510 8887,http://latrampagrafica.wordpress.com,latrampa.grafica@gmail.com,19.42889,-99.14119,9,15,1,Ciudad de México,Cuauhtémoc,Cuauhtémoc,http://sic.gob.mx/ficha.php?table=galeria&table_id=1313,2020-04-21T14:13:44-05:00
252,1674,Galería Artífice,2018-09-01,,Av. Nuevo León 62  ,Col. Hipódromo Condesa,06000,55 74 50 90 68,https://artifice.gallery/,info@artifice.gallery ,19.41314,-99.17135,9,15,1,Ciudad de México,Cuauhtémoc,Cuauhtémoc,http://sic.gob.mx/ficha.php?table=galeria&table_id=1674,2022-04-13T05:22:39-05:00
253,1192,Galería Tinta Naranja,2013-10-01,,Av. Amsterdam 254,Col. Hipódromo Condesa,06100,55 5564 3177,http://www.tintanaranja.com/,mark@tintanaranja.com,19.4112,-99.16806,9,15,1,Ciudad de México,Cuauhtémoc,Cuauhtémoc,http://sic.gob.mx/ficha.php?table=galeria&table_id=1192,2021-03-03T04:20:43-06:00
254,1157,Celaya Brothers Gallery,2014-05-01,,Edison 137,Col. San Rafael,06700,55 6391 5541,http://www.celayabrothersgallery.com,cbg@arto.mx ,19.43832,-99.1567,9,15,1,Ciudad de México,Cuauhtémoc,Cuauhtémoc,http://sic.gob.mx/ficha.php?table=galeria&table_id=1157,2020-04-21T14:15:21-05:00
255,1397,"Bikini Wax,  espacio de exhibición emergente",2011-10-01,,Pedro de Alba 232,Col. Buenos Aires,11800,55 2908 5681,,biquiniwax@gmail.com,19.39067,-99.13675,9,15,1,Ciudad de México,Cuauhtémoc,Cuauhtémoc,http://sic.gob.mx/ficha.php?table=galeria&table_id=1397,2021-03-01T03:48:53-06:00
256,1398,Galería LULU,2013-01-01,,Bajío 231,Col. Roma,06760,55 3334 9715,http://www.luludf.com/,infoluludf@gmail.com ,19.40359,-99.16439,9,15,1,Ciudad de México,Cuauhtémoc,Cuauhtémoc,http://sic.gob.mx/ficha.php?table=galeria&table_id=1398,2020-10-20T05:28:00-05:00
257,1289,Salón de la Plástica Rivera,2009-01-01,,"Colima 244, Roma Nte.",Col. Roma Norte,06700, 55 4861 8580,https://www.riveramexico.com/,riverariveragaleria@gmail.com,19.419,-99.16308,9,15,1,Ciudad de México,Cuauhtémoc,Cuauhtémoc,http://sic.gob.mx/ficha.php?table=galeria&table_id=1289,2022-06-23T04:55:04-05:00
258,191,Galería Muca Roma,2006-06-01,Museo Universiario de Ciencias y Arte,Tonalá 51 esq. Colima,Col. Roma,06700,55 5511 8867,https://www.mucaroma.unam.mx/,elmucaroma@gmail.com,19.41898,-99.16309,9,15,1,Ciudad de México,Cuauhtémoc,Cuauhtémoc,http://sic.gob.mx/ficha.php?table=galeria&table_id=191,2020-10-20T08:05:50-05:00
259,283,Galería Pública Involuntary México,2019-09-04,Gobierno de la Ciudad de México/Estación del metro Bellas Artes, Calle Hidalgo s/n,Centro Histórico,06470,,,,19.43564,-99.14118,9,15,1,Ciudad de México,Cuauhtémoc,Cuauhtémoc,http://sic.gob.mx/ficha.php?table=galeria&table_id=283,2021-07-14T05:31:18-05:00
260,1786,Galería 49Basán,2015-01-01,,Av. Alvaro Obregón,Col. Roma,,56 1995 4912,,06700,19.41846,-99.15657,9,15,1,Ciudad de México,Cuauhtémoc,Cuauhtémoc,http://sic.gob.mx/ficha.php?table=galeria&table_id=1786,2021-07-12T08:53:37-05:00
261,200,Sala de exposiciones del Centro Médico Nacional Siglo XXI,2000-01-01,Instituto Mexicano del Seguro Social,Cuauhtémoc 330,Col. Doctores,06720,55 5627 6900 ext. 21140,,dianacallejas@imss.gob.mx ,19.4071,-99.15423,9,15,1,Ciudad de México,Cuauhtémoc,Cuauhtémoc,http://sic.gob.mx/ficha.php?table=galeria&table_id=200,2021-05-12T09:20:07-05:00
262,1175,Galería Luis Cardoza y Aragón,2006-04-26,Centro Cultural Bella Época/ ,Tamaulipas 202,Col. Hipódromo Condesa,06170,55 5276 7110,,,19.40722,-99.17739,9,15,1,Ciudad de México,Cuauhtémoc,Cuauhtémoc,http://sic.gob.mx/ficha.php?table=galeria&table_id=1175,2021-08-27T06:25:12-05:00
263,611,Galería Windsor,1000-01-01,,Hamburgo 224,Col. Juárez,06600,55 5525 2881,https://www.galeriawindsor.mx/,galeriaw@mail.com,19.42362,-99.16901,9,15,1,Ciudad de México,Cuauhtémoc,Cuauhtémoc,http://sic.gob.mx/ficha.php?table=galeria&table_id=611,2020-04-21T14:24:03-05:00
264,1405,Galería Central,1975-01-01,Museo Universitario  del Chopo,Dr. Enrique González Martínez 10 ,Col. Santa María la Ribera,06400,55 5546 3471,http://www.chopo.unam.mx/ahora.html,,19.44186,-99.15676,9,15,1,Ciudad de México,Cuauhtémoc,Cuauhtémoc,http://sic.gob.mx/ficha.php?table=galeria&table_id=1405,2020-10-20T04:00:20-05:00
265,506,Galería Arróniz Arte Contemporáneo,2018-10-25,,Calle Tabasco 198,Col. Roma,06700,55 5511 7965,http://www.arroniz-arte.com/,info@arroniz-arte.com,19.41871,-99.1621,9,15,1,Ciudad de México,Cuauhtémoc,Cuauhtémoc,http://sic.gob.mx/ficha.php?table=galeria&table_id=506,2021-07-14T03:51:40-05:00
266,1404,Galería Helen Escobedo Liso,1975-01-01,Museo Universitario del Chopo,Dr. Enrique González Martínez 10,Col. Santa María la Ribera,06400,55 5546 8490,http://www.chopo.unam.mx/ahora.html,info.chopo@unam.mx,19.44188,-99.15683,9,15,1,Ciudad de México,Cuauhtémoc,Cuauhtémoc,http://sic.gob.mx/ficha.php?table=galeria&table_id=1404,2021-07-14T05:10:11-05:00
267,1836,Galería Sur,1000-01-01,Museo Universitario del Chopo,Dr. Enrique González Martínez 10 ,Col. Santa María la Ribera,06400,55 5546 8490,http://www.chopo.unam.mx/recorridos/sur.html,comunicacion.chopo@unam.mx,19.44189,-99.15668,9,15,1,Ciudad de México,Cuauhtémoc,Cuauhtémoc,http://sic.gob.mx/ficha.php?table=galeria&table_id=1836,2020-04-23T16:56:59-05:00
268,1406,Galería Arnold Belkin,1975-01-01,Museo Universitario del Chopo/UNAM,Calle Dr. Enrique González Martínez núm. 10,Col. Santa María la Ribera,06400,55 5546 8490,https://www.chopo.unam.mx/recorridos/belkin.html,info.chopo@unam.mx,19.44182,-99.15672,9,15,1,Ciudad de México,Cuauhtémoc,Cuauhtémoc,http://sic.gob.mx/ficha.php?table=galeria&table_id=1406,2021-05-11T08:25:50-05:00
269,1040,Arca México,2012-07-01,,Av. Insurgentes Sur 257,Col. Roma Norte,06700,55 5207 5412 ,http://arcamx.com/,info@arcamx.com,19.41749,-99.16513,9,15,1,Ciudad de México,Cuauhtémoc,Cuauhtémoc,http://sic.gob.mx/ficha.php?table=galeria&table_id=1040,2021-03-01T03:41:07-06:00
270,193,Galería OMR,1983-01-01,,Córdoba núm. 100,Col. Roma,06700,55 5511 1179,http://www.galeriaomr.com,info@galeriaomr.com,19.41893,-99.15849,9,15,1,Ciudad de México,Cuauhtémoc,Cuauhtémoc,http://sic.gob.mx/ficha.php?table=galeria&table_id=193,2022-04-06T08:27:06-05:00
271,880,Estudio  de Joaquín Clausell,2004-11-18,Museo de la Ciudad de México/Secretaría de Cultura de la ciudad de México , Av. José María Pino Suárez 30,Centro,06000,55 5542 0671   ,https://www.cultura.cdmx.gob.mx/comunicacion/nota/0047-19,museodelaciudaddemexico@gmail.com,19.4295,-99.13233,9,15,1,Ciudad de México,Cuauhtémoc,Cuauhtémoc,http://sic.gob.mx/ficha.php?table=galeria&table_id=880,2020-10-19T04:39:28-05:00
272,1848,Galería de Arte del Centro Cultural El Rule,2017-06-16,Secretaría de Cultura de la Ciudad de México,Eje Central Lázaro Cárdenas 6,Centro,06000,55 1719 3000,http://www.cultura.cdmx.gob.mx/el-rule,galeriaelrule@gmail.com,19.43361,-99.14047,9,15,1,Ciudad de México,Cuauhtémoc,Cuauhtémoc,http://sic.gob.mx/ficha.php?table=galeria&table_id=1848,2020-04-21T14:23:00-05:00
273,1062,Galería Hispánica Contemporánea México,2013-10-01,,Guadalajara 88,Col. Roma,06700,55 5211 4087,http://www.galeriahispanica.es/mx/,elena@galeriahispanica.es,19.41629,-99.17184,9,15,1,Ciudad de México,Cuauhtémoc,Cuauhtémoc,http://sic.gob.mx/ficha.php?table=galeria&table_id=1062,2021-04-26T04:34:33-05:00
274,1414,Galería Breve,2012-01-01,,Berlín 37,Col. Juárez,06600,55 3045 1249,,info@galeriabreve.com       ,19.42627,-99.15678,9,15,1,Ciudad de México,Cuauhtémoc,Cuauhtémoc,http://sic.gob.mx/ficha.php?table=galeria&table_id=1414,2021-05-11T08:29:22-05:00
275,201,Salón de la Plástica Mexicana,1949-10-16,Secretaría de Cultura/INBA,Colima 196,Col. Roma,06700,55  8647 5260,,salonplasticamex@inba.gob.mx,19.41929,-99.16117,9,15,1,Ciudad de México,Cuauhtémoc,Cuauhtémoc,http://sic.gob.mx/ficha.php?table=galeria&table_id=201,2020-10-19T07:34:21-05:00
276,1531,Galería Abierta del Panteón de San Fernando,2015-04-04,Secretaría de Cultura de la Ciudad de México,Plaza de San Fernando 17,Col. Guerrero,06300,,https://www.archivo.cdmx.gob.mx/vive-cdmx/post/museo-panteon-de-san-fernando,,19.43899,-99.14793,9,15,1,Ciudad de México,Cuauhtémoc,Cuauhtémoc,http://sic.gob.mx/ficha.php?table=galeria&table_id=1531,2020-05-06T13:44:55-05:00
277,934,Galería  La 77,2010-07-01,Hotel boutique El Patio 77,Joaquín García Icazbalceta 77,Col. San Rafael,06470,044 55 2858 4532,https://galeriala77.wordpress.com/,galeriala77@gmail.com,19.44162,-99.16385,9,15,1,Ciudad de México,Cuauhtémoc,Cuauhtémoc,http://sic.gob.mx/ficha.php?table=galeria&table_id=934,2020-10-15T04:21:36-05:00
278,1893,Galería Estudio Marte 221º,2016-10-06,,Jaime Torres Bodet 221,Col. Santa María la Ribera,06400,,,estudiomarte221@gmail.com,19.45231,-99.15694,9,15,1,Ciudad de México,Cuauhtémoc,Cuauhtémoc,http://sic.gob.mx/ficha.php?table=galeria&table_id=1893,2022-03-08T03:31:23-06:00
279,218,Galería José María Velasco,1962-09-07,Secretaría de Cultura/INBA,Peralvillo 55,Col. Morelos,06200,55 5772 0542,https://inba.gob.mx/recinto/28,galeria.velasco@gmail.com,19.44802,-99.13226,9,15,1,Ciudad de México,Cuauhtémoc,Cuauhtémoc,http://sic.gob.mx/ficha.php?table=galeria&table_id=218,2021-08-26T11:01:35-05:00
280,1638,Salón ACME,2013-01-01,,Gral. Prim 30-32,Col. Juárez,06600,,,salonacme@gmail.com,19.43009,-99.15295,9,15,1,Ciudad de México,Cuauhtémoc,Cuauhtémoc,http://sic.gob.mx/ficha.php?table=galeria&table_id=1638,2021-12-16T06:55:39-06:00
281,1896,LaNao Galería,2021-04-27,,Av. Michoacán 75,Col. Hipódromo Condesa,06100,,https://www.lanao.com.mx/,info@lanao.com.mx,19.44165,-99.15167,9,15,1,Ciudad de México,Cuauhtémoc,Cuauhtémoc,http://sic.gob.mx/ficha.php?table=galeria&table_id=1896,2021-12-16T06:52:22-06:00
282,1356,"El Ágora,  Galería del Pueblo",2020-01-23,Secretaría de Cultura de la Ciudad de México,"Plaza de la Constitución 2, piso 2",Centro Histórico,06000,55 5345 8000,,salondecabildos1@gmail.com,19.43167,-99.13388,9,15,1,Ciudad de México,Cuauhtémoc,Cuauhtémoc,http://sic.gob.mx/ficha.php?table=galeria&table_id=1356,2022-01-20T10:47:41-06:00
283,1908,"Coordenada Azul, galería al aire libre",2016-04-30,"Universidad La Salle, A.C. ",Benjamín Franklin 45,Col. Condesa,06140,5555 5278 9500,https://lasalle.mx/; https://bienestar.lasalle.mx/coordenada-azul/,adriana.hernandez@lasalle.mx; sachi.uchisato@lasalle.mx,19.40738,-99.18156,9,15,1,Ciudad de México,Cuauhtémoc,Cuauhtémoc,http://sic.gob.mx/ficha.php?table=galeria&table_id=1908,2021-10-20T12:02:17-05:00
284,1204,Galerías Castillo,2004-01-01,,"Marconi 2, local 2",Centro Histórico,06010,55 5521 2644.,,contacto@galeriascastillo.com,19.43641,-99.13995,9,15,1,Ciudad de México,Cuauhtémoc,Cuauhtémoc,http://sic.gob.mx/ficha.php?table=galeria&table_id=1204,2021-09-29T04:51:16-05:00
285,1837,Proyecto N.A.S.A.L.,2020-02-05,,San Luis Potosí 123,Col. Roma Nte.,06700,55 2870 3258,https://nasal.pe/,,19.41406,-99.16045,9,15,1,Ciudad de México,Cuauhtémoc,Cuauhtémoc,http://sic.gob.mx/ficha.php?table=galeria&table_id=1837,2022-03-25T04:22:52-06:00
286,1640,Galería Artedis,1000-01-01,,Medellín 165,Col. Roma,06700,55 7090 2167,,artediscdmx@gmail.com,19.41283,-99.16502,9,15,1,Ciudad de México,Cuauhtémoc,Cuauhtémoc,http://sic.gob.mx/ficha.php?table=galeria&table_id=1640,2021-07-12T04:18:08-05:00
287,1628,Studio Block M74,2018-01-02,,Calle Moctezuma 64,Col. Guerrero,06300,55 5529 7958 (previa cita),,studioblock.m74@gmail.com,19.44325,-99.14236,9,15,1,Ciudad de México,Cuauhtémoc,Cuauhtémoc,http://sic.gob.mx/ficha.php?table=galeria&table_id=1628,2021-05-12T09:04:18-05:00
288,1162,Taller-Galería  Hazme el Milagrito,2013-01-01,,Eucalipto 20,Col. Santa María La Ribera,06700,55 2684 8285,,hazmelmilagrito@gmail.com,19.45129,-99.15292,9,15,1,Ciudad de México,Cuauhtémoc,Cuauhtémoc,http://sic.gob.mx/ficha.php?table=galeria&table_id=1162,2021-09-14T10:25:43-05:00
289,1692,Galería de Cine,1000-01-01,La Casa del Cine MX,"República de Uruguay 52, piso 2",Centro,06000,55 5512 4243,http://lacasadelcine.mx/exposiciones/,redes.lacasadelcinemx@gmail.com,19.43083,-99.13757,9,15,1,Ciudad de México,Cuauhtémoc,Cuauhtémoc,http://sic.gob.mx/ficha.php?table=galeria&table_id=1692,2020-10-15T03:33:36-05:00
290,1202,Bálsamo Galería,2012-03-01,,"Isabel la Católica 30, piso 1",Centro Histórico,06000,55 5512 3221,,georginamaria@hotmail.com,19.43299,-99.13652,9,15,1,Ciudad de México,Cuauhtémoc,Cuauhtémoc,http://sic.gob.mx/ficha.php?table=galeria&table_id=1202,2020-11-06T07:29:36-06:00
291,987,Galería La Silvestre Atelier,2018-09-01,,José Alvarado 7,Col. Roma,06700,55 1686 3622,http://lasilvestre.mx/,contacto@lasilvestre.mx,19.41274,-99.16312,9,15,1,Ciudad de México,Cuauhtémoc,Cuauhtémoc,http://sic.gob.mx/ficha.php?table=galeria&table_id=987,2020-04-21T06:53:18-05:00
292,1006,Galería de Arte Machete,2012-11-14,,Córdoba 25,Col. Roma,06700,55 1394 3983,https://macheteart.com/es/machete/,galenamachete@gmail.com,19.42324,-99.15987,9,15,1,Ciudad de México,Cuauhtémoc,Cuauhtémoc,http://sic.gob.mx/ficha.php?table=galeria&table_id=1006,2021-07-12T07:26:36-05:00
293,1675,Galería Kino,2019-01-01,Cine Tonalá,Calle Tonalá 261,Col. Roma Sur,06700,55 6891 7100,https://www.kinotonala.com,kinotonala@gmail.com,19.40883,-99.16052,9,15,1,Ciudad de México,Cuauhtémoc,Cuauhtémoc,http://sic.gob.mx/ficha.php?table=galeria&table_id=1675,2021-03-01T07:37:31-06:00
294,186,Galería Casa de Francia,1994-01-01,Centro Cultural Casa de Francia/Embajada de Francia,Havre 15,Col. Juárez,06600, 55 5566 0777,https://ifal.mx/cultura/talleres-de-melies,contacto@casadefranciadigital.org.mx,19.42824,-99.16228,9,15,1,Ciudad de México,Cuauhtémoc,Cuauhtémoc,http://sic.gob.mx/ficha.php?table=galeria&table_id=186,2021-03-01T06:11:10-06:00
295,630,"House of Gaga, Arte Contemporáneo",2006-02-01,,Amsterdam 123,Col. Condesa,06100,55 6381 1219,https://www.houseofgaga.com/,hello@houseofgaga.com,19.4158,-99.16741,9,15,1,Ciudad de México,Cuauhtémoc,Cuauhtémoc,http://sic.gob.mx/ficha.php?table=galeria&table_id=630,2021-08-30T09:05:37-05:00
296,177,Galería Agustina Ferreyra,2018-02-05,,Ignacio Manuel Altamirano 50 Casa G esq. Alfonso Herrera,Col. San Rafael,06470,55 7704 9817,https://agustinaferreyra.com/,info@agustinaferreyra.com,19.43969,-99.16206,9,15,1,Ciudad de México,Cuauhtémoc,Cuauhtémoc,http://sic.gob.mx/ficha.php?table=galeria&table_id=177,2020-04-21T13:56:52-05:00
297,1233,Galería Karen Huber,2014-09-01,,Bucareli 120 Edif. Vizcaya,Centro,06600,55 5510 9081,http://karen-huber.com/,info@karen-huber.com,19.4286,-99.15235,9,15,1,Ciudad de México,Cuauhtémoc,Cuauhtémoc,http://sic.gob.mx/ficha.php?table=galeria&table_id=1233,2021-07-14T05:14:29-05:00
298,1651,Proyecto México Antiguo,2018-01-01,, Av. Mazatlán 159,Col. Condesa,06170,55 4432 1150,http://www.mexicoantiguo.com.mx,info@mexicoantiguo.com.mx,19.41077,-99.17932,9,15,1,Ciudad de México,Cuauhtémoc,Cuauhtémoc,http://sic.gob.mx/ficha.php?table=galeria&table_id=1651,2020-04-21T13:59:35-05:00
299,1209,"Border Galería, Arte Emergente",2006-01-01,Centro Cultural Border,Zacatecas 43,Col. Roma,06700,55  5584 7557,http://www.border.com.mx/,eugenio@border.com.mx,19.41655,-99.15631,9,15,1,Ciudad de México,Cuauhtémoc,Cuauhtémoc,http://sic.gob.mx/ficha.php?table=galeria&table_id=1209,2021-03-01T04:00:01-06:00
300,1635,Latitud Gallery,1000-01-01,,Plaza Río de Janeiro 69,Col. Roma,06700,55 5567 7233,,galeria@latitud.gallery,19.42043,-99.1606,9,15,1,Ciudad de México,Cuauhtémoc,Cuauhtémoc,http://sic.gob.mx/ficha.php?table=galeria&table_id=1635,2021-07-13T06:52:06-05:00
301,185,Galería Arvil,1969-05-01,,Cda. de Hamburgo 7 y 9,Col. Juárez,06600,55 5207 2820,http://www.arvil.com.mx,arvil@arvil.com.mx,19.42573,-99.16645,9,15,1,Ciudad de México,Cuauhtémoc,Cuauhtémoc,http://sic.gob.mx/ficha.php?table=galeria&table_id=185,2020-04-21T14:01:42-05:00
302,1360,Galería de Arte Nordenhakemexico,2018-01-01,,Colima 159,Col. Roma Nte.,06700,55 1380 3893,https://nordenhake.com/contact,mexico@nordenhake.com,19.42007,-99.15974,9,15,1,Ciudad de México,Cuauhtémoc,Cuauhtémoc,http://sic.gob.mx/ficha.php?table=galeria&table_id=1360,2020-04-21T14:03:11-05:00
303,320,Galería Llorar,1982-01-16,,Miguel E. Schultz 26 ,Col. San Rafael,06470,55 3074 2484,,llorar.cdmx@gmail.com,19.44055,-99.16074,9,15,1,Ciudad de México,Cuauhtémoc,Cuauhtémoc,http://sic.gob.mx/ficha.php?table=galeria&table_id=320,2020-10-20T05:17:27-05:00
304,1454,Galería Klandestina,2019-05-23,,Calle Campeche 151,Col. Roma Sur,06760,55 4161 2266,,info@galeriaklandestina.com,19.40989,-99.165,9,15,1,Ciudad de México,Cuauhtémoc,Cuauhtémoc,http://sic.gob.mx/ficha.php?table=galeria&table_id=1454,2021-02-15T06:14:39-06:00
305,1494,Galería Planta Baja,2018-09-01,,Calle Repúbica de Cuba 41,Centro,06000,,,galeriaplantabaja41@gmail.com,19.43716,-99.13753,9,15,1,Ciudad de México,Cuauhtémoc,Cuauhtémoc,http://sic.gob.mx/ficha.php?table=galeria&table_id=1494,2021-07-13T09:20:31-05:00
306,1318,Galería Daniela Elbahara,2019-02-28,,Huichapan 1,Col. Condesa,06100,55 2120 9111,https://danielaelbahara.com/About,danielaelbahara@gmail.com,19.41613,-99.16891,9,15,1,Ciudad de México,Cuauhtémoc,Cuauhtémoc,http://sic.gob.mx/ficha.php?table=galeria&table_id=1318,2021-03-01T06:48:18-06:00
307,1595,Galería Terreno Baldío,2013-01-01,,Orizaba 177,Col. Roma,06700,55 6395 1101,https://terrenobaldio.com/,info@terrenobaldioarte.com,19.41439,-99.15904,9,15,1,Ciudad de México,Cuauhtémoc,Cuauhtémoc,http://sic.gob.mx/ficha.php?table=galeria&table_id=1595,2021-09-22T04:43:16-05:00
308,579,Galería Mascota,2016-01-01,,Cozumel 61 A,Col. Roma,06700,55 5414 8380,http://www.galeriamascota.com/,info@probertgaleria.com,19.41787,-99.17082,9,15,1,Ciudad de México,Cuauhtémoc,Cuauhtémoc,http://sic.gob.mx/ficha.php?table=galeria&table_id=579,2020-10-20T05:39:10-05:00
309,1033,Galería Altiplano ,2012-01-01,,San Luis Potosí 43 C,Col. Roma,06700,55 5264 2095,,info@altiplanogaleria.com,19.41513,-99.15562,9,15,1,Ciudad de México,Cuauhtémoc,Cuauhtémoc,http://sic.gob.mx/ficha.php?table=galeria&table_id=1033,2020-10-19T06:26:19-05:00
310,639,Galería Ricardo Reyes Arte Contemporáneo,2000-01-01,,Campeche 362-2,Col. Condesa,06100,55 5211 8711,http://www.ricardoreyesarte.com,ricardo@ricardoreyesarte.com,19.41043,-99.17558,9,15,1,Ciudad de México,Cuauhtémoc,Cuauhtémoc,http://sic.gob.mx/ficha.php?table=galeria&table_id=639,2020-10-20T08:25:20-05:00
311,673,Galería Campeche,2021-08-01,,Campeche 130,Col. Roma Sur,06700,,https://galeriacampeche.com/es/viewing-room/,fatima [at] galeriacampeche.com,19.41008,-99.16441,9,15,1,Ciudad de México,Cuauhtémoc,Cuauhtémoc,http://sic.gob.mx/ficha.php?table=galeria&table_id=673,2021-12-09T03:58:56-06:00
312,1399,Lodos Galería de Arte,2013-01-01,,Calle de Turín 38 B,Col. Juárez,06600,55 4837 8190,https://lodosgallery.info/es/,,19.4265,-99.15531,9,15,1,Ciudad de México,Cuauhtémoc,Cuauhtémoc,http://sic.gob.mx/ficha.php?table=galeria&table_id=1399,2021-03-03T04:58:53-06:00
313,1425,Galería Acapulco 62,2018-02-01,,Dr. Atl 217,Col. Santa María La Ribera,06400,55 7822 0132,http://acapulco62.com/,62acapulco@gmail.com,19.4501,-99.15588,9,15,1,Ciudad de México,Cuauhtémoc,Cuauhtémoc,http://sic.gob.mx/ficha.php?table=galeria&table_id=1425,2021-08-02T06:32:59-05:00
314,680,Aguafuerte Galería,2005-01-01,,Guanajuato 118,Col. Roma,06700,55 2454 9638,http://www.aguafuertegaleria.com/,contacto@aguafuertegaleria.com ,19.41662,-99.16006,9,15,1,Ciudad de México,Cuauhtémoc,Cuauhtémoc,http://sic.gob.mx/ficha.php?table=galeria&table_id=680,2021-07-19T15:04:07-05:00
315,669,Galería lelaboratoire,2008-01-01,,Vicente Suárez 69-2,Col. Condesa,06140,55 5256 4360,http://www.lelaboratoire.mx/index.php/,info@lelaboratoire.mx,19.41226,-99.17659,9,15,1,Ciudad de México,Cuauhtémoc,Cuauhtémoc,http://sic.gob.mx/ficha.php?table=galeria&table_id=669,2020-10-20T05:11:31-05:00
